{
"type": "FeatureCollection",
"name": "politicos",
"crs": { "type": "name", "properties": { "name": "urn:ogc:def:crs:OGC:1.3:CRS84" } },
"features": [
{ "type": "Feature", "properties": { "id": null, "Circuns": "Jaén", "Distrito": "Alcalá la Real", "Direccion": "Puerta del Sol 14", "Faccion": "Conservadores", "Apellidos": "Abril y León", "Nombre": "Luis", "FNac": "1846-06-21", "LugNac": "Alcalá la Real", "Titulo": null, "Obs": null, "Tipo": "Diputado" }, "geometry": { "type": "Point", "coordinates": [ -3.70284731928663, 40.417220314059485 ] } },
{ "type": "Feature", "properties": { "id": null, "Circuns": "Jaén", "Distrito": "Martos", "Direccion": "Recoletos 6", "Faccion": null, "Apellidos": "Prado y Marín", "Nombre": "Mariano del", "FNac": "1827-08-21", "LugNac": "Jaén", "Titulo": "Marqués de Acapulco", "Obs": null, "Tipo": "Diputado" }, "geometry": { "type": "Point", "coordinates": [ -3.690171975954588, 40.421767997375554 ] } },
{ "type": "Feature", "properties": { "id": null, "Circuns": "Soria", "Distrito": "Soria", "Direccion": "Carr. de San Gerónimo 34. Hotel de Rusia", "Faccion": "Conservadores", "Apellidos": "Aceña", "Nombre": "Ramón Benito", "FNac": "1830-10-14", "LugNac": "Valdeavellano", "Titulo": null, "Obs": null, "Tipo": "Diputado" }, "geometry": { "type": "Point", "coordinates": [ -3.699216304904452, 40.416434834534776 ] } },
{ "type": "Feature", "properties": { "id": null, "Circuns": "Jaén", "Distrito": "Andujar", "Direccion": "Turco 10", "Faccion": null, "Apellidos": "Pérez de Vargas y Castejón", "Nombre": "Manuel", "FNac": "1836-09-08", "LugNac": "Andujar", "Titulo": "Conde de Agramonte de Valdecabriel", "Obs": null, "Tipo": "Diputado" }, "geometry": { "type": "Point", "coordinates": [ -3.695727016420873, 40.41673062149664 ] } },
{ "type": "Feature", "properties": { "id": null, "Circuns": "Burgos", "Distrito": "Castrojeriz", "Direccion": "Greda 26", "Faccion": "Conservadores", "Apellidos": "García Sancho Ibarrondo", "Nombre": "Ventura", "FNac": "1837-04-20", "LugNac": "México", "Titulo": "Marqués de Aguilar de Campóo", "Obs": null, "Tipo": "Diputado" }, "geometry": { "type": "Point", "coordinates": [ -3.696038573775009, 40.417544215735894 ] } },
{ "type": "Feature", "properties": { "id": null, "Circuns": "Puerto Rico", "Distrito": "Arecibo", "Direccion": "Cruz 18-20", "Faccion": "Conservadores", "Apellidos": "Albacete y Albert", "Nombre": "Salvador", "FNac": "1822-01-01", "LugNac": "Cartagena", "Titulo": null, "Obs": null, "Tipo": "Diputado" }, "geometry": { "type": "Point", "coordinates": [ -3.701854226103924, 40.415631129515511 ] } },
{ "type": "Feature", "properties": { "id": null, "Circuns": "Badajoz", "Distrito": "Badajoz", "Direccion": "Abada 3", "Faccion": null, "Apellidos": "Albarrán y García Marqués", "Nombre": "Manuel María", "FNac": "1847-06-25", "LugNac": "Badajoz", "Titulo": null, "Obs": null, "Tipo": "Diputado" }, "geometry": { "type": "Point", "coordinates": [ -3.703908274976738, 40.418885609823029 ] } },
{ "type": "Feature", "properties": { "id": null, "Circuns": "Huesca", "Distrito": "Sariñena", "Direccion": "Valverde 30-32", "Faccion": "Conservadores", "Apellidos": "Alba Salcedo", "Nombre": "Leopoldo de", "FNac": "1843-01-01", "LugNac": "Vejer de la Frontera", "Titulo": null, "Obs": null, "Tipo": "Diputado" }, "geometry": { "type": "Point", "coordinates": [ -3.70155098825583, 40.422356195056508 ] } },
{ "type": "Feature", "properties": { "id": null, "Circuns": "Cádiz", "Distrito": "Jerez de la Frontera", "Direccion": "Piamonte 5", "Faccion": null, "Apellidos": "Adorno Fuentes", "Nombre": "José", "FNac": null, "LugNac": null, "Titulo": "Marqués de Alboloduy", "Obs": null, "Tipo": "Diputado" }, "geometry": { "type": "Point", "coordinates": [ -3.696228498310725, 40.423220284369634 ] } },
{ "type": "Feature", "properties": { "id": null, "Circuns": "Huesca", "Distrito": "Huesca", "Direccion": "Cost. de los Ángeles 4", "Faccion": null, "Apellidos": "Naya y Azara", "Nombre": "Antonio", "FNac": null, "LugNac": null, "Titulo": "Barón de Alcalá", "Obs": null, "Tipo": "Diputado" }, "geometry": { "type": "Point", "coordinates": [ -3.708226260976434, 40.418568332346382 ] } },
{ "type": "Feature", "properties": { "id": null, "Circuns": "Zaragoza", "Distrito": "Zaragoza", "Direccion": "Biblioteca 8", "Faccion": null, "Apellidos": "Almech y Falcon", "Nombre": "Enrique", "FNac": null, "LugNac": null, "Titulo": null, "Obs": null, "Tipo": "Diputado" }, "geometry": { "type": "Point", "coordinates": [ -3.710450211296161, 40.419042142254206 ] } },
{ "type": "Feature", "properties": { "id": null, "Circuns": "Baleares", "Distrito": "Mahón", "Direccion": "Montera 31", "Faccion": null, "Apellidos": "Martorell y Fivaller", "Nombre": "José María", "FNac": "1843-01-01", "LugNac": null, "Titulo": "Duque de Almenara Alta", "Obs": null, "Tipo": "Diputado" }, "geometry": { "type": "Point", "coordinates": [ -3.702452468505216, 40.41869234748566 ] } },
{ "type": "Feature", "properties": { "id": null, "Circuns": "Ciudad Real", "Distrito": "Alcazar de San Juan", "Direccion": "Tujillos 7", "Faccion": "Conservadores", "Apellidos": "Palacios y García de Velasco", "Nombre": "Francisco Javier de", "FNac": "1840-01-01", "LugNac": "Jaén", "Titulo": "Conde de las Almenas", "Obs": "Filiación supuesta", "Tipo": "Diputado" }, "geometry": { "type": "Point", "coordinates": [ -3.707584276866785, 40.418699373349952 ] } },
{ "type": "Feature", "properties": { "id": null, "Circuns": "Burgos", "Distrito": "Castrojeriz", "Direccion": "Serrano hotel nº 2", "Faccion": "Independiente", "Apellidos": "Alonso Martínez", "Nombre": "Manuel", "FNac": "1827-01-13", "LugNac": "Burgos", "Titulo": null, "Obs": null, "Tipo": "Diputado" }, "geometry": { "type": "Point", "coordinates": [ -3.688151547007396, 40.421934495818363 ] } },
{ "type": "Feature", "properties": { "id": null, "Circuns": "Valladolid", "Distrito": "Peñafiel", "Direccion": "Arenal 16", "Faccion": "Conservadores", "Apellidos": "Alonso Pesquera", "Nombre": "Miguel", "FNac": "1842-09-01", "LugNac": "Sardón de Duero", "Titulo": null, "Obs": null, "Tipo": "Diputado" }, "geometry": { "type": "Point", "coordinates": [ -3.706357973605191, 40.417332336290414 ] } },
{ "type": "Feature", "properties": { "id": null, "Circuns": "León", "Distrito": "Sahagún", "Direccion": "Tetuán 17", "Faccion": null, "Apellidos": "Alonso Vallejo", "Nombre": "Luis", "FNac": "1821-06-20", "LugNac": "Valdevimbre", "Titulo": null, "Obs": null, "Tipo": "Diputado" }, "geometry": { "type": "Point", "coordinates": [ -3.704604610895418, 40.417323171062961 ] } },
{ "type": "Feature", "properties": { "id": null, "Circuns": "Burgos", "Distrito": "Villarcayo", "Direccion": "Serrano 42", "Faccion": "Conservadores", "Apellidos": "Álvarez Martínez", "Nombre": "Fernando", "FNac": "1814-05-30", "LugNac": "Medina de Pomar", "Titulo": null, "Obs": null, "Tipo": "Diputado" }, "geometry": { "type": "Point", "coordinates": [ -3.687022806550144, 40.428410193206005 ] } },
{ "type": "Feature", "properties": { "id": null, "Circuns": "Orense", "Distrito": "Orense", "Direccion": "Atocha 33", "Faccion": null, "Apellidos": "Álvarez Bugallal", "Nombre": "Saturnino", "FNac": "1834-02-11", "LugNac": "Santa María de Arenas", "Titulo": null, "Obs": "Conservador algo ambiguo", "Tipo": "Diputado" }, "geometry": { "type": "Point", "coordinates": [ -3.702814962640981, 40.414056205995529 ] } },
{ "type": "Feature", "properties": { "id": null, "Circuns": "Almería", "Distrito": "Vera", "Direccion": "Caballero de Gracia 23", "Faccion": null, "Apellidos": "Anglada y Ruiz", "Nombre": "Juan María", "FNac": "1833-11-29", "LugNac": "Vera", "Titulo": null, "Obs": null, "Tipo": "Diputado" }, "geometry": { "type": "Point", "coordinates": [ -3.699442583618557, 40.419403599450646 ] } },
{ "type": "Feature", "properties": { "id": null, "Circuns": "Madrid", "Distrito": "Madrid", "Direccion": "Carretas 6", "Faccion": "Partido Constitucional", "Apellidos": "Angulo Ortíz de Traspeña", "Nombre": "Santiago de", "FNac": "1823-12-30", "LugNac": "Madrid", "Titulo": null, "Obs": null, "Tipo": "Diputado" }, "geometry": { "type": "Point", "coordinates": [ -3.703382833741826, 40.41578158680317 ] } },
{ "type": "Feature", "properties": { "id": null, "Circuns": "Castellón", "Distrito": "Lucena del Cid", "Direccion": "Bordadores 3", "Faccion": "Conservadores", "Apellidos": "Antón Ramirez", "Nombre": "Jerónimo", "FNac": null, "LugNac": null, "Titulo": null, "Obs": null, "Tipo": "Diputado" }, "geometry": { "type": "Point", "coordinates": [ -3.707731480736775, 40.416673870645326 ] } },
{ "type": "Feature", "properties": { "id": null, "Circuns": "Granada", "Distrito": "Santa Fe", "Direccion": "Hortaleza 67", "Faccion": null, "Apellidos": "González de Olañeta y González de Ocampo", "Nombre": "Ulpiano", "FNac": "1847-05-13", "LugNac": "Madrid", "Titulo": "Vizconde de los Antrines", "Obs": null, "Tipo": "Diputado" }, "geometry": { "type": "Point", "coordinates": [ -3.698876558813877, 40.423606624659705 ] } },
{ "type": "Feature", "properties": { "id": null, "Circuns": "Valencia", "Distrito": "Valencia", "Direccion": "Recoletos 13", "Faccion": null, "Apellidos": "Aranaz", "Nombre": "Ramón", "FNac": null, "LugNac": null, "Titulo": null, "Obs": null, "Tipo": "Diputado" }, "geometry": { "type": "Point", "coordinates": [ -3.691819353110982, 40.423465244145241 ] } },
{ "type": "Feature", "properties": { "id": null, "Circuns": "Navarra", "Distrito": "Aoiz", "Direccion": "Almendro 6", "Faccion": null, "Apellidos": "Arcos", "Nombre": "Javier María de los", "FNac": null, "LugNac": null, "Titulo": null, "Obs": null, "Tipo": "Diputado" }, "geometry": { "type": "Point", "coordinates": [ -3.709956797206286, 40.412728280780335 ] } },
{ "type": "Feature", "properties": { "id": null, "Circuns": "Sevilla", "Distrito": "Écija", "Direccion": "Sordo 25", "Faccion": null, "Apellidos": null, "Nombre": null, "FNac": null, "LugNac": null, "Titulo": "Marqués del Arenal", "Obs": null, "Tipo": "Diputado" }, "geometry": { "type": "Point", "coordinates": [ -3.696001212849458, 40.416913151936846 ] } },
{ "type": "Feature", "properties": { "id": null, "Circuns": "Palencia", "Distrito": "Carrión", "Direccion": "Vergara 4", "Faccion": null, "Apellidos": "Arenillas", "Nombre": "Saturnino", "FNac": null, "LugNac": null, "Titulo": null, "Obs": null, "Tipo": "Diputado" }, "geometry": { "type": "Point", "coordinates": [ -3.710818303228137, 40.417766443046986 ] } },
{ "type": "Feature", "properties": { "id": null, "Circuns": "Puerto Rico", "Distrito": "Humaco", "Direccion": "Luzón 4 dup", "Faccion": null, "Apellidos": "Argenti", "Nombre": "Nicolás", "FNac": null, "LugNac": null, "Titulo": null, "Obs": null, "Tipo": "Diputado" }, "geometry": { "type": "Point", "coordinates": [ -3.710610758371858, 40.416198492156362 ] } },
{ "type": "Feature", "properties": { "id": null, "Circuns": "Gerona", "Distrito": "Figueras", "Direccion": "Príncipe 14", "Faccion": null, "Apellidos": "Arias y Giner", "Nombre": "Severiano", "FNac": null, "LugNac": null, "Titulo": null, "Obs": null, "Tipo": "Diputado" }, "geometry": { "type": "Point", "coordinates": [ -3.700463966933938, 40.415634367802241 ] } },
{ "type": "Feature", "properties": { "id": null, "Circuns": "Soria", "Distrito": "Agreda", "Direccion": "Carmen 10", "Faccion": null, "Apellidos": "Arnaiz y Lambea", "Nombre": "Victor", "FNac": null, "LugNac": null, "Titulo": null, "Obs": null, "Tipo": "Diputado" }, "geometry": { "type": "Point", "coordinates": [ -3.70376617223081, 40.417988986032327 ] } },
{ "type": "Feature", "properties": { "id": null, "Circuns": "Málaga", "Distrito": "Ronda", "Direccion": "Cost. de los Ángeles 15", "Faccion": null, "Apellidos": "Aurioles", "Nombre": "Pedro Nolasco", "FNac": null, "LugNac": null, "Titulo": null, "Obs": null, "Tipo": "Diputado" }, "geometry": { "type": "Point", "coordinates": [ -3.708137039832407, 40.419627270840294 ] } },
{ "type": "Feature", "properties": { "id": null, "Circuns": "Salamanca", "Distrito": "Peñaranda", "Direccion": "Sordo 4 dup", "Faccion": null, "Apellidos": "Ávila Ruano", "Nombre": "Manuel", "FNac": null, "LugNac": null, "Titulo": null, "Obs": null, "Tipo": "Diputado" }, "geometry": { "type": "Point", "coordinates": [ -3.697341854234274, 40.416651517615726 ] } },
{ "type": "Feature", "properties": { "id": null, "Circuns": "Zaragoza", "Distrito": "Almunia", "Direccion": "Pl. de las Cortes 4", "Faccion": null, "Apellidos": null, "Nombre": null, "FNac": null, "LugNac": null, "Titulo": "Marqués de Ayerbe", "Obs": null, "Tipo": "Diputado" }, "geometry": { "type": "Point", "coordinates": [ -3.695046546862184, 40.415742184797558 ] } },
{ "type": "Feature", "properties": { "id": null, "Circuns": "Baleares", "Distrito": "Palma", "Direccion": "Arco de Sta María 42", "Faccion": null, "Apellidos": "Ayneto y Echevarría", "Nombre": "Gregorio", "FNac": null, "LugNac": null, "Titulo": null, "Obs": null, "Tipo": "Diputado" }, "geometry": { "type": "Point", "coordinates": [ -3.696592638573057, 40.421885988063039 ] } },
{ "type": "Feature", "properties": { "id": null, "Circuns": "Lérida", "Distrito": "Solsona", "Direccion": "Barquillo 13 dup", "Faccion": null, "Apellidos": "Azcárraga", "Nombre": "Manuel de", "FNac": null, "LugNac": null, "Titulo": null, "Obs": null, "Tipo": "Diputado" }, "geometry": { "type": "Point", "coordinates": [ -3.695781145077588, 40.422242780756605 ] } },
{ "type": "Feature", "properties": { "id": null, "Circuns": "Barcelona", "Distrito": "Villanueva y Geltrú", "Direccion": "Salud 13", "Faccion": null, "Apellidos": "Balaguer", "Nombre": "Victor", "FNac": null, "LugNac": null, "Titulo": null, "Obs": null, "Tipo": "Diputado" }, "geometry": { "type": "Point", "coordinates": [ -3.703470636702131, 40.419342904831581 ] } },
{ "type": "Feature", "properties": { "id": null, "Circuns": "León", "Distrito": "Murias", "Direccion": "Reina 24", "Faccion": null, "Apellidos": "Balenchana y Cuenca", "Nombre": "José", "FNac": null, "LugNac": null, "Titulo": null, "Obs": null, "Tipo": "Diputado" }, "geometry": { "type": "Point", "coordinates": [ -3.697311051421781, 40.419507248101688 ] } },
{ "type": "Feature", "properties": { "id": null, "Circuns": "Lérida", "Distrito": "Balaguer", "Direccion": "Caballero de Gracia 24", "Faccion": null, "Apellidos": "Bañares y Gordell", "Nombre": "Joaquín", "FNac": null, "LugNac": null, "Titulo": null, "Obs": null, "Tipo": "Diputado" }, "geometry": { "type": "Point", "coordinates": [ -3.700359861580169, 40.419315769673155 ] } },
{ "type": "Feature", "properties": { "id": null, "Circuns": "Cádiz", "Distrito": "Puerto de Santa María", "Direccion": "Torres 4", "Faccion": null, "Apellidos": "Barca y Corral", "Nombre": "Francisco", "FNac": null, "LugNac": null, "Titulo": null, "Obs": null, "Tipo": "Diputado" }, "geometry": { "type": "Point", "coordinates": [ -3.697008569406484, 40.419650362146335 ] } },
{ "type": "Feature", "properties": { "id": null, "Circuns": "Soria", "Distrito": "Burgo de Osma", "Direccion": "Lobo 5", "Faccion": null, "Apellidos": "Barrio Ayuso y Miguel", "Nombre": "Cosme", "FNac": null, "LugNac": null, "Titulo": null, "Obs": null, "Tipo": "Diputado" }, "geometry": { "type": "Point", "coordinates": [ -3.699524136963599, 40.4161906586518 ] } },
{ "type": "Feature", "properties": { "id": null, "Circuns": "Huesca", "Distrito": "Fraga", "Direccion": "Barrio Nuevo 12", "Faccion": null, "Apellidos": "Barron", "Nombre": "Eugenio", "FNac": null, "LugNac": null, "Titulo": null, "Obs": null, "Tipo": "Diputado" }, "geometry": { "type": "Point", "coordinates": [ -3.705061832752863, 40.4131671630144 ] } },
{ "type": "Feature", "properties": { "id": null, "Circuns": "Lugo", "Distrito": "Vivero", "Direccion": "Alcalá 6-8", "Faccion": null, "Apellidos": "Basanta y Miranda", "Nombre": "Bartolomé", "FNac": null, "LugNac": null, "Titulo": null, "Obs": null, "Tipo": "Diputado" }, "geometry": { "type": "Point", "coordinates": [ -3.701580759242058, 40.417101331013747 ] } },
{ "type": "Feature", "properties": { "id": null, "Circuns": "Alicante", "Distrito": "Elche", "Direccion": "Tudescos 44", "Faccion": null, "Apellidos": "Bas y Moró", "Nombre": "Federico", "FNac": null, "LugNac": null, "Titulo": null, "Obs": null, "Tipo": "Diputado" }, "geometry": { "type": "Point", "coordinates": [ -3.705061159202125, 40.421319647811664 ] } },
{ "type": "Feature", "properties": { "id": null, "Circuns": "Coruña", "Distrito": "Muros", "Direccion": "Huertas 37", "Faccion": null, "Apellidos": "Batanero", "Nombre": "Manuel", "FNac": null, "LugNac": null, "Titulo": null, "Obs": null, "Tipo": "Diputado" }, "geometry": { "type": "Point", "coordinates": [ -3.698284191403128, 40.413586268660033 ] } },
{ "type": "Feature", "properties": { "id": null, "Circuns": "Tarragona", "Distrito": "Valls", "Direccion": "Pl. del Conde de Miranda 1", "Faccion": null, "Apellidos": "Batllo y Vidal", "Nombre": "José", "FNac": null, "LugNac": null, "Titulo": null, "Obs": null, "Tipo": "Diputado" }, "geometry": { "type": "Point", "coordinates": [ -3.709448324552894, 40.414704073530743 ] } },
{ "type": "Feature", "properties": { "id": null, "Circuns": "Madrid", "Distrito": "Madrid", "Direccion": "Greda 9", "Faccion": null, "Apellidos": "Bayo", "Nombre": "Adolfo", "FNac": null, "LugNac": null, "Titulo": null, "Obs": null, "Tipo": "Diputado" }, "geometry": { "type": "Point", "coordinates": [ -3.697458122733286, 40.417670256964826 ] } },
{ "type": "Feature", "properties": { "id": null, "Circuns": "León", "Distrito": "Astroga", "Direccion": "Arco de Santa María 36", "Faccion": null, "Apellidos": "Bayón del Valle", "Nombre": "Mariano", "FNac": null, "LugNac": null, "Titulo": null, "Obs": null, "Tipo": "Diputado" }, "geometry": { "type": "Point", "coordinates": [ -3.697014796141756, 40.421933377644898 ] } },
{ "type": "Feature", "properties": { "id": null, "Circuns": "Granada", "Distrito": "Baza", "Direccion": "S. Bernardo 1", "Faccion": null, "Apellidos": "Belmonte y Vilches", "Nombre": "Francisco", "FNac": null, "LugNac": null, "Titulo": null, "Obs": null, "Tipo": "Diputado" }, "geometry": { "type": "Point", "coordinates": [ -3.708491201119922, 40.420719408481695 ] } },
{ "type": "Feature", "properties": { "id": null, "Circuns": "Toledo", "Distrito": "Torrijos", "Direccion": "Corredera Baja 7", "Faccion": null, "Apellidos": "Benayas y Portocarrero", "Nombre": "Manuel", "FNac": null, "LugNac": null, "Titulo": null, "Obs": null, "Tipo": "Diputado" }, "geometry": { "type": "Point", "coordinates": [ -3.708316242685993, 40.413216195612748 ] } },
{ "type": "Feature", "properties": { "id": null, "Circuns": "Burgos", "Distrito": "Aranda", "Direccion": "Arenal 4", "Faccion": null, "Apellidos": "Berdugo y Ortíz", "Nombre": "Félix", "FNac": null, "LugNac": null, "Titulo": null, "Obs": null, "Tipo": "Diputado" }, "geometry": { "type": "Point", "coordinates": [ -3.705041673892094, 40.417033680599637 ] } },
{ "type": "Feature", "properties": { "id": null, "Circuns": "Pontevedra", "Distrito": "Tuy", "Direccion": "Desengaño 27", "Faccion": null, "Apellidos": "Boguerín", "Nombre": "Francisco Javier", "FNac": null, "LugNac": null, "Titulo": null, "Obs": null, "Tipo": "Diputado" }, "geometry": { "type": "Point", "coordinates": [ -3.704159023130175, 40.420948950248651 ] } },
{ "type": "Feature", "properties": { "id": null, "Circuns": "Granada", "Distrito": "Loja", "Direccion": "Arco de Sta María 42", "Faccion": null, "Apellidos": "Borrajo de la Bandera", "Nombre": "Pedro", "FNac": null, "LugNac": null, "Titulo": null, "Obs": null, "Tipo": "Diputado" }, "geometry": { "type": "Point", "coordinates": [ -3.696438988867226, 40.421878055885422 ] } },
{ "type": "Feature", "properties": { "id": null, "Circuns": "Barcelona", "Distrito": "Vich", "Direccion": "Preciados 3", "Faccion": null, "Apellidos": "Boch y Labrús", "Nombre": "Pedro", "FNac": null, "LugNac": null, "Titulo": null, "Obs": null, "Tipo": "Diputado" }, "geometry": { "type": "Point", "coordinates": [ -3.704462268109674, 40.417456794675616 ] } },
{ "type": "Feature", "properties": { "id": null, "Circuns": "Granada", "Distrito": "Guaix", "Direccion": "Claudo Coello 13", "Faccion": null, "Apellidos": "Botella", "Nombre": "Francisco", "FNac": null, "LugNac": null, "Titulo": null, "Obs": null, "Tipo": "Diputado" }, "geometry": { "type": "Point", "coordinates": [ -3.686882832591423, 40.424350478816557 ] } },
{ "type": "Feature", "properties": { "id": null, "Circuns": "Valencia", "Distrito": "Chelva", "Direccion": "Claudo Coello 13", "Faccion": null, "Apellidos": "Botella y Andrés", "Nombre": "José", "FNac": null, "LugNac": null, "Titulo": null, "Obs": null, "Tipo": "Diputado" }, "geometry": { "type": "Point", "coordinates": [ -3.68689382448008, 40.424270679638134 ] } },
{ "type": "Feature", "properties": { "id": null, "Circuns": "Lérida", "Distrito": "Tremp", "Direccion": "Pizarro 19", "Faccion": null, "Apellidos": "Cabezas", "Nombre": "Rafael", "FNac": null, "LugNac": null, "Titulo": null, "Obs": null, "Tipo": "Diputado" }, "geometry": { "type": "Point", "coordinates": [ -3.705659053216196, 40.423585658061008 ] } },
{ "type": "Feature", "properties": { "id": null, "Circuns": "Barcelona", "Distrito": "Arenys de Mar", "Direccion": "Alcalá 17 dup", "Faccion": null, "Apellidos": "Cabirol", "Nombre": "Joaquín de", "FNac": null, "LugNac": null, "Titulo": null, "Obs": null, "Tipo": "Diputado" }, "geometry": { "type": "Point", "coordinates": [ -3.699998849039524, 40.417922020944978 ] } },
{ "type": "Feature", "properties": { "id": null, "Circuns": "Córdoba", "Distrito": "Cabra", "Direccion": "Pl. del Angel 11", "Faccion": null, "Apellidos": null, "Nombre": null, "FNac": null, "LugNac": null, "Titulo": "Marqués de Cabra", "Obs": null, "Tipo": "Diputado" }, "geometry": { "type": "Point", "coordinates": [ -3.701930700553561, 40.41414206895162 ] } },
{ "type": "Feature", "properties": { "id": null, "Circuns": "Córdoba", "Distrito": "Lucena", "Direccion": "Arco de Sta María 29", "Faccion": null, "Apellidos": "Cabrera y Valle", "Nombre": "Martín", "FNac": null, "LugNac": null, "Titulo": null, "Obs": null, "Tipo": "Diputado" }, "geometry": { "type": "Point", "coordinates": [ -3.698431773345463, 40.422445589917913 ] } },
{ "type": "Feature", "properties": { "id": null, "Circuns": "Ávila", "Distrito": "Ávila", "Direccion": "Ferraz 4", "Faccion": null, "Apellidos": "Cadenas", "Nombre": "José de", "FNac": null, "LugNac": null, "Titulo": null, "Obs": null, "Tipo": "Diputado" }, "geometry": { "type": "Point", "coordinates": [ -3.715080324303133, 40.424104732976062 ] } },
{ "type": "Feature", "properties": { "id": null, "Circuns": "Canarias", "Distrito": "Sta Cruz de Tenerife", "Direccion": "Pl. de las Cortes 8", "Faccion": null, "Apellidos": "Campoamor", "Nombre": "Ramón de", "FNac": null, "LugNac": null, "Titulo": null, "Obs": null, "Tipo": "Diputado" }, "geometry": { "type": "Point", "coordinates": [ -3.697117138722694, 40.415938503386265 ] } },
{ "type": "Feature", "properties": { "id": null, "Circuns": "Gerona", "Distrito": "Gerona", "Direccion": "Carr. de San Gerónimo 34. Hotel de Rusia", "Faccion": null, "Apellidos": "Camps y de Matas", "Nombre": "Pelayo", "FNac": null, "LugNac": null, "Titulo": null, "Obs": null, "Tipo": "Diputado" }, "geometry": { "type": "Point", "coordinates": [ -3.699123274928683, 40.416432435186579 ] } },
{ "type": "Feature", "properties": { "id": null, "Circuns": "Ávila", "Distrito": "Arévalo", "Direccion": "Pl. del Ángel 8", "Faccion": null, "Apellidos": "Canalejas y Casas", "Nombre": "José", "FNac": null, "LugNac": null, "Titulo": null, "Obs": "Ojo", "Tipo": "Diputado" }, "geometry": { "type": "Point", "coordinates": [ -3.701603121514422, 40.414482943476131 ] } },
{ "type": "Feature", "properties": { "id": null, "Circuns": "Lugo", "Distrito": "Rivadeo", "Direccion": "Caños 3", "Faccion": null, "Apellidos": "Cancio Villaamil", "Nombre": "Mariano", "FNac": null, "LugNac": null, "Titulo": null, "Obs": null, "Tipo": "Diputado" }, "geometry": { "type": "Point", "coordinates": [ -3.708674138781652, 40.41894233347589 ] } },
{ "type": "Feature", "properties": { "id": null, "Circuns": "Sevilla", "Distrito": "Marchena", "Direccion": "Lope de Vega 13", "Faccion": null, "Apellidos": "Candau Acosta", "Nombre": "Francisco de Paula", "FNac": null, "LugNac": null, "Titulo": null, "Obs": null, "Tipo": "Diputado" }, "geometry": { "type": "Point", "coordinates": [ -3.698124233669317, 40.413882287639666 ] } },
{ "type": "Feature", "properties": { "id": null, "Circuns": "Castellón", "Distrito": "Nules", "Direccion": "Sartén 10", "Faccion": null, "Apellidos": null, "Nombre": null, "FNac": null, "LugNac": null, "Titulo": "Conde de Canillas", "Obs": null, "Tipo": "Diputado" }, "geometry": { "type": "Point", "coordinates": [ -3.706971052736728, 40.419216442518426 ] } },
{ "type": "Feature", "properties": { "id": 1, "Circuns": "Madrid", "Distrito": "Madrid", "Direccion": "Fuencarral 4", "Faccion": null, "Apellidos": "Cánovas del Castillo", "Nombre": "Antonio", "FNac": null, "LugNac": null, "Titulo": null, "Obs": null, "Tipo": "Diputado" }, "geometry": { "type": "Point", "coordinates": [ -3.701440897420301, 40.420247815931496 ] } },
{ "type": "Feature", "properties": { "id": null, "Circuns": "Murcia", "Distrito": "Cieza", "Direccion": "Barquillo 12", "Faccion": null, "Apellidos": "Cánovas del Castillo", "Nombre": "Emilio", "FNac": null, "LugNac": null, "Titulo": null, "Obs": null, "Tipo": "Diputado" }, "geometry": { "type": "Point", "coordinates": [ -3.695524511631612, 40.421753578188017 ] } },
{ "type": "Feature", "properties": { "id": null, "Circuns": "Orense", "Distrito": "Carballino", "Direccion": "Almirante 18 dup", "Faccion": null, "Apellidos": "Cantero y Seirullo", "Nombre": "Antonio", "FNac": null, "LugNac": null, "Titulo": null, "Obs": null, "Tipo": "Diputado" }, "geometry": { "type": "Point", "coordinates": [ -3.692797541294309, 40.422364132274126 ] } },
{ "type": "Feature", "properties": { "id": null, "Circuns": "Oviedo", "Distrito": "Gijón", "Direccion": "Sauco 15", "Faccion": null, "Apellidos": "Cápua", "Nombre": "Andrés de", "FNac": null, "LugNac": null, "Titulo": null, "Obs": null, "Tipo": "Diputado" }, "geometry": { "type": "Point", "coordinates": [ -3.693062197659095, 40.422001124853182 ] } },
{ "type": "Feature", "properties": { "id": null, "Circuns": "Coruña", "Distrito": "Puentedeume", "Direccion": "Torres 4 dup", "Faccion": null, "Apellidos": "Caramés", "Nombre": "Domingo", "FNac": null, "LugNac": null, "Titulo": null, "Obs": null, "Tipo": "Diputado" }, "geometry": { "type": "Point", "coordinates": [ -3.697055766736207, 40.41985569232542 ] } },
{ "type": "Feature", "properties": { "id": null, "Circuns": "Coruña", "Distrito": "Santa María de Ortigueira", "Direccion": "Alcalá 36", "Faccion": null, "Apellidos": "Carballo", "Nombre": "Daniel", "FNac": null, "LugNac": null, "Titulo": null, "Obs": null, "Tipo": "Diputado" }, "geometry": { "type": "Point", "coordinates": [ -3.699436173323426, 40.417624832239284 ] } },
{ "type": "Feature", "properties": { "id": null, "Circuns": "Lugo", "Distrito": "Lugo", "Direccion": "Pizarro 19", "Faccion": null, "Apellidos": "Cárdenas y Uriarte", "Nombre": "José de", "FNac": null, "LugNac": null, "Titulo": null, "Obs": null, "Tipo": "Diputado" }, "geometry": { "type": "Point", "coordinates": [ -3.705621840358643, 40.423650230563695 ] } },
{ "type": "Feature", "properties": { "id": null, "Circuns": "Tarragona", "Distrito": "Roguelas", "Direccion": "Serrano 26", "Faccion": null, "Apellidos": "Carnicero y Román", "Nombre": "Juan", "FNac": null, "LugNac": null, "Titulo": null, "Obs": null, "Tipo": "Diputado" }, "geometry": { "type": "Point", "coordinates": [ -3.687472692158606, 40.426037403927204 ] } },
{ "type": "Feature", "properties": { "id": null, "Circuns": "Granada", "Distrito": "Huescar", "Direccion": "Puerta del Sol 14. Hotel Universo", "Faccion": null, "Apellidos": "Carreño de la Cuara", "Nombre": "José", "FNac": null, "LugNac": null, "Titulo": null, "Obs": null, "Tipo": "Diputado" }, "geometry": { "type": "Point", "coordinates": [ -3.702766428089953, 40.417196619079618 ] } },
{ "type": "Feature", "properties": { "id": null, "Circuns": "Navarra", "Distrito": "Tafalla", "Direccion": "Pl. de Matute 9", "Faccion": null, "Apellidos": "Carriquiri", "Nombre": "Nazario", "FNac": null, "LugNac": null, "Titulo": null, "Obs": null, "Tipo": "Diputado" }, "geometry": { "type": "Point", "coordinates": [ -3.700034803792076, 40.413363647273115 ] } },
{ "type": "Feature", "properties": { "id": null, "Circuns": "Puerto Rico", "Distrito": "San Germán", "Direccion": "S. Isidro 14", "Faccion": null, "Apellidos": "Cartagena", "Nombre": "José Agustín", "FNac": null, "LugNac": null, "Titulo": null, "Obs": null, "Tipo": "Diputado" }, "geometry": { "type": "Point", "coordinates": [ -3.713267415014072, 40.411252252169362 ] } },
{ "type": "Feature", "properties": { "id": null, "Circuns": "Málaga", "Distrito": "Málaga", "Direccion": "Alcalá 2", "Faccion": null, "Apellidos": "Casado y Sánchez de Castilla", "Nombre": "Manuel", "FNac": null, "LugNac": null, "Titulo": null, "Obs": null, "Tipo": "Diputado" }, "geometry": { "type": "Point", "coordinates": [ -3.702062632885477, 40.416979919426069 ] } },
{ "type": "Feature", "properties": { "id": null, "Circuns": null, "Distrito": "Claudio Coello 13", "Direccion": "Valencia", "Faccion": null, "Apellidos": null, "Nombre": null, "FNac": null, "LugNac": null, "Titulo": "Marqués de Casa-Ramos", "Obs": null, "Tipo": "Diputado" }, "geometry": { "type": "Point", "coordinates": [ -3.686873180033325, 40.424425076426964 ] } },
{ "type": "Feature", "properties": { "id": null, "Circuns": "Valencia", "Distrito": "Sagunto", "Direccion": "Silva 49", "Faccion": null, "Apellidos": "Castañón Albizua", "Nombre": "Eduardo", "FNac": null, "LugNac": null, "Titulo": null, "Obs": null, "Tipo": "Diputado" }, "geometry": { "type": "Point", "coordinates": [ -3.705722074499076, 40.421925982717028 ] } },
{ "type": "Feature", "properties": { "id": null, "Circuns": "Barcelona", "Distrito": "Barcelona", "Direccion": "Serrno 28", "Faccion": "Partido Demócrata Posibilista", "Apellidos": "Castelar y Ripoll", "Nombre": "Emilio", "FNac": null, "LugNac": null, "Titulo": null, "Obs": null, "Tipo": "Diputado" }, "geometry": { "type": "Point", "coordinates": [ -3.687408087922581, 40.426293956661198 ] } },
{ "type": "Feature", "properties": { "id": null, "Circuns": "Tarragona", "Distrito": "Vendrell", "Direccion": "Alcalá 17 trip", "Faccion": null, "Apellidos": "Castellarnau y Bulcolls", "Nombre": "Joaquín", "FNac": null, "LugNac": null, "Titulo": null, "Obs": null, "Tipo": "Diputado" }, "geometry": { "type": "Point", "coordinates": [ -3.69984535738259, 40.41796867477035 ] } },
{ "type": "Feature", "properties": { "id": null, "Circuns": "Barcelona", "Distrito": "Igualada", "Direccion": "Alcalá 17 dup", "Faccion": null, "Apellidos": "Castell de Pons", "Nombre": "Antonio", "FNac": null, "LugNac": null, "Titulo": null, "Obs": null, "Tipo": "Diputado" }, "geometry": { "type": "Point", "coordinates": [ -3.699932357569843, 40.417941163093673 ] } },
{ "type": "Feature", "properties": { "id": null, "Circuns": "Huesca", "Distrito": "Boltaña", "Direccion": "Pl. de Matute 9", "Faccion": null, "Apellidos": "Cavero y Llera", "Nombre": "Juan", "FNac": null, "LugNac": null, "Titulo": null, "Obs": null, "Tipo": "Diputado" }, "geometry": { "type": "Point", "coordinates": [ -3.700020885965872, 40.413424383488717 ] } },
{ "type": "Feature", "properties": { "id": null, "Circuns": "Santander", "Distrito": "Torrelavega", "Direccion": "Recoletos 6", "Faccion": null, "Apellidos": "Cedrún", "Nombre": "José Antonio", "FNac": null, "LugNac": null, "Titulo": null, "Obs": null, "Tipo": "Diputado" }, "geometry": { "type": "Point", "coordinates": [ -3.690061720662782, 40.421728178001132 ] } },
{ "type": "Feature", "properties": { "id": null, "Circuns": "Valencia", "Distrito": "Torrente", "Direccion": "Victoria 1. Fonda de Embajadores", "Faccion": null, "Apellidos": "Cerdá y Lloret", "Nombre": "José", "FNac": null, "LugNac": null, "Titulo": null, "Obs": null, "Tipo": "Diputado" }, "geometry": { "type": "Point", "coordinates": [ -3.701542617637257, 40.416519860802516 ] } },
{ "type": "Feature", "properties": { "id": null, "Circuns": "Huesca", "Distrito": "Bernacarre", "Direccion": "Puerta del Sol 1. Hotel de París", "Faccion": null, "Apellidos": "Cervero y de Valdés", "Nombre": "Francisco", "FNac": null, "LugNac": null, "Titulo": null, "Obs": null, "Tipo": "Diputado" }, "geometry": { "type": "Point", "coordinates": [ -3.702219853720219, 40.41691639400176 ] } },
{ "type": "Feature", "properties": { "id": null, "Circuns": "Guadalajara", "Distrito": "Sigüenza", "Direccion": "Colegiata 5", "Faccion": null, "Apellidos": "Ciruelos  EStéban", "Nombre": "Victoriano", "FNac": null, "LugNac": null, "Titulo": null, "Obs": null, "Tipo": "Diputado" }, "geometry": { "type": "Point", "coordinates": [ -3.7055832281889, 40.412618763161589 ] } },
{ "type": "Feature", "properties": { "id": null, "Circuns": "Ciudad Real", "Distrito": "Ciudad Real", "Direccion": "Serrano 72", "Faccion": null, "Apellidos": "Cisneros", "Nombre": "Enrique", "FNac": null, "LugNac": null, "Titulo": null, "Obs": null, "Tipo": "Diputado" }, "geometry": { "type": "Point", "coordinates": [ -3.686533971862833, 40.431885665969496 ] } },
{ "type": "Feature", "properties": { "id": null, "Circuns": "Sevilla", "Distrito": "Estepa", "Direccion": "Carbón 1", "Faccion": null, "Apellidos": "Clavijo y Royan", "Nombre": "Juan", "FNac": null, "LugNac": null, "Titulo": null, "Obs": null, "Tipo": "Diputado" }, "geometry": { "type": "Point", "coordinates": [ -3.703131802226611, 40.420189063518009 ] } },
{ "type": "Feature", "properties": { "id": null, "Circuns": "Barcelona", "Distrito": "Barcelona", "Direccion": "Alcalá 2", "Faccion": null, "Apellidos": "Collado Gil", "Nombre": "Pedro", "FNac": null, "LugNac": null, "Titulo": null, "Obs": null, "Tipo": "Diputado" }, "geometry": { "type": "Point", "coordinates": [ -3.702108899199859, 40.416986789398976 ] } },
{ "type": "Feature", "properties": { "id": null, "Circuns": "Córdoba", "Distrito": "Córdoba", "Direccion": "Príncipe 11", "Faccion": null, "Apellidos": "Conde y Luque", "Nombre": "Rafael", "FNac": null, "LugNac": null, "Titulo": null, "Obs": null, "Tipo": "Diputado" }, "geometry": { "type": "Point", "coordinates": [ -3.700218956030612, 40.415896290158244 ] } },
{ "type": "Feature", "properties": { "id": null, "Circuns": "Sevilla", "Distrito": "Morón", "Direccion": "Lope de Vega 15", "Faccion": null, "Apellidos": "Corbacho y Reina", "Nombre": "José", "FNac": null, "LugNac": null, "Titulo": null, "Obs": null, "Tipo": "Diputado" }, "geometry": { "type": "Point", "coordinates": [ -3.69801881575652, 40.413867874006087 ] } },
{ "type": "Feature", "properties": { "id": null, "Circuns": "Murcia", "Distrito": "Cartagena", "Direccion": "Jacometrezo 34", "Faccion": null, "Apellidos": "Cos-Gayon y Pons", "Nombre": "Fernando", "FNac": null, "LugNac": null, "Titulo": null, "Obs": null, "Tipo": "Diputado" }, "geometry": { "type": "Point", "coordinates": [ -3.70358505838341, 40.420204946800517 ] } },
{ "type": "Feature", "properties": { "id": null, "Circuns": "Baleares", "Distrito": "Palma", "Direccion": "Barquillo 28", "Faccion": null, "Apellidos": "Crestar Penas", "Nombre": "Carlos", "FNac": null, "LugNac": null, "Titulo": null, "Obs": null, "Tipo": "Diputado" }, "geometry": { "type": "Point", "coordinates": [ -3.695446703392583, 40.423515601171879 ] } },
{ "type": "Feature", "properties": { "id": null, "Circuns": "Alicante", "Distrito": "Villena", "Direccion": "Florín 6", "Faccion": null, "Apellidos": "Cruzada Villaamil", "Nombre": "Gregorio", "FNac": null, "LugNac": null, "Titulo": null, "Obs": null, "Tipo": "Diputado" }, "geometry": { "type": "Point", "coordinates": [ -3.695956363177777, 40.416619382448054 ] } },
{ "type": "Feature", "properties": { "id": null, "Circuns": "Sevilla", "Distrito": "Utrera", "Direccion": "Pº de Recoletos 7", "Faccion": null, "Apellidos": "Cuadra", "Nombre": "Enrique de la", "FNac": null, "LugNac": null, "Titulo": null, "Obs": null, "Tipo": "Diputado" }, "geometry": { "type": "Point", "coordinates": [ -3.692700625471307, 40.421579482543756 ] } },
{ "type": "Feature", "properties": { "id": null, "Circuns": "Valladolid", "Distrito": "Medina de Rioseco", "Direccion": "Alcalá 19", "Faccion": null, "Apellidos": "Cuadrillero", "Nombre": "Vicente", "FNac": null, "LugNac": null, "Titulo": null, "Obs": null, "Tipo": "Diputado" }, "geometry": { "type": "Point", "coordinates": [ -3.69973942564197, 40.418000095417085 ] } },
{ "type": "Feature", "properties": { "id": null, "Circuns": "Puerto Rico", "Distrito": "Riopiedras", "Direccion": "Pl. del Cordón 2", "Faccion": null, "Apellidos": "Dacarrete", "Nombre": "Ángel María", "FNac": null, "LugNac": null, "Titulo": null, "Obs": null, "Tipo": "Diputado" }, "geometry": { "type": "Point", "coordinates": [ -3.710226850564884, 40.41435266937124 ] } },
{ "type": "Feature", "properties": { "id": null, "Circuns": "Valencia", "Distrito": "Gandía", "Direccion": "Floridablanca 3", "Faccion": null, "Apellidos": "Dauvila Collado", "Nombre": "Manuel", "FNac": null, "LugNac": null, "Titulo": null, "Obs": null, "Tipo": "Diputado" }, "geometry": { "type": "Point", "coordinates": [ -3.697108190125606, 40.416604762593558 ] } },
{ "type": "Feature", "properties": { "id": null, "Circuns": "Cádiz", "Distrito": "San Fernando", "Direccion": "Pº de Recoletos 11 dup", "Faccion": null, "Apellidos": "Díaz de Herrera", "Nombre": "José Manuel", "FNac": null, "LugNac": null, "Titulo": null, "Obs": null, "Tipo": "Diputado" }, "geometry": { "type": "Point", "coordinates": [ -3.692387916371667, 40.42226025827847 ] } },
{ "type": "Feature", "properties": { "id": null, "Circuns": "Oviedo", "Distrito": "Belmonte", "Direccion": "Aduana 27", "Faccion": null, "Apellidos": "Díaz Miranda", "Nombre": "Eulogio", "FNac": null, "LugNac": null, "Titulo": null, "Obs": null, "Tipo": "Diputado" }, "geometry": { "type": "Point", "coordinates": [ -3.700906845982622, 40.418435198799877 ] } },
{ "type": "Feature", "properties": { "id": null, "Circuns": null, "Distrito": "Carretas 41", "Direccion": "Granada", "Faccion": null, "Apellidos": "Díaz del Moral y RIquelme", "Nombre": "Mariano", "FNac": null, "LugNac": null, "Titulo": null, "Obs": null, "Tipo": "Diputado" }, "geometry": { "type": "Point", "coordinates": [ -3.703169202814586, 40.414750946835817 ] } },
{ "type": "Feature", "properties": { "id": null, "Circuns": "Zamora", "Distrito": "Toro", "Direccion": "Amor de Dios 13-15", "Faccion": null, "Apellidos": "Díez Jubitero", "Nombre": "Rafael", "FNac": null, "LugNac": null, "Titulo": null, "Obs": null, "Tipo": "Diputado" }, "geometry": { "type": "Point", "coordinates": [ -3.698348467651876, 40.412564535741666 ] } },
{ "type": "Feature", "properties": { "id": null, "Circuns": "Jaén", "Distrito": "Baeza", "Direccion": "Montera 10", "Faccion": null, "Apellidos": "Sánchez", "Nombre": "Genaro de Dios", "FNac": null, "LugNac": null, "Titulo": null, "Obs": null, "Tipo": "Diputado" }, "geometry": { "type": "Point", "coordinates": [ -3.702697885287929, 40.417603484850481 ] } },
{ "type": "Feature", "properties": { "id": null, "Circuns": "Sevilla", "Distrito": "Carmona", "Direccion": "Puerta del Sol 1. Hotel de París", "Faccion": null, "Apellidos": "Domínguez", "Nombre": "Lorenzo", "FNac": null, "LugNac": null, "Titulo": null, "Obs": null, "Tipo": "Diputado" }, "geometry": { "type": "Point", "coordinates": [ -3.702211147415921, 40.416866390387092 ] } },
{ "type": "Feature", "properties": { "id": null, "Circuns": "Ciudad Real", "Distrito": "Almagro", "Direccion": "Reina 6", "Faccion": null, "Apellidos": "Echalecu y Saloune", "Nombre": "Ángel", "FNac": null, "LugNac": null, "Titulo": null, "Obs": null, "Tipo": "Diputado" }, "geometry": { "type": "Point", "coordinates": [ -3.700272464084872, 40.420270058320725 ] } },
{ "type": "Feature", "properties": { "id": null, "Circuns": "Cáceres", "Distrito": "Trujillo", "Direccion": "Preciados 5", "Faccion": null, "Apellidos": null, "Nombre": null, "FNac": null, "LugNac": null, "Titulo": "Conde de la Encina", "Obs": null, "Tipo": "Diputado" }, "geometry": { "type": "Point", "coordinates": [ -3.704622430040954, 40.417693987427391 ] } },
{ "type": "Feature", "properties": { "id": null, "Circuns": "Orense", "Distrito": "Celanova", "Direccion": "Gravina 20", "Faccion": null, "Apellidos": "Escobar", "Nombre": "Ángel", "FNac": null, "LugNac": null, "Titulo": null, "Obs": null, "Tipo": "Diputado" }, "geometry": { "type": "Point", "coordinates": [ -3.696156466657542, 40.422514436106269 ] } },
{ "type": "Feature", "properties": { "id": null, "Circuns": "Castellón", "Distrito": "Segorbe", "Direccion": "Huertas 24", "Faccion": null, "Apellidos": "Escrig y Font", "Nombre": "José", "FNac": null, "LugNac": null, "Titulo": null, "Obs": null, "Tipo": "Diputado" }, "geometry": { "type": "Point", "coordinates": [ -3.699616591683842, 40.413685085598331 ] } },
{ "type": "Feature", "properties": { "id": null, "Circuns": "Huesca", "Distrito": "Barbastro", "Direccion": "Carr. de S. Gerónimo 7-9", "Faccion": null, "Apellidos": "Escudero", "Nombre": "Pedro", "FNac": null, "LugNac": null, "Titulo": null, "Obs": null, "Tipo": "Diputado" }, "geometry": { "type": "Point", "coordinates": [ -3.701323923493344, 40.416806749605421 ] } },
{ "type": "Feature", "properties": { "id": null, "Circuns": "Madrid", "Distrito": "Navalcarnero", "Direccion": "Libertad 18", "Faccion": null, "Apellidos": "Escobar", "Nombre": "Ignacio José", "FNac": null, "LugNac": null, "Titulo": null, "Obs": null, "Tipo": "Diputado" }, "geometry": { "type": "Point", "coordinates": [ -3.69718473526348, 40.421867934583894 ] } },
{ "type": "Feature", "properties": { "id": null, "Circuns": "Zaragoza", "Distrito": "Zaragoza", "Direccion": "S. Bernardo 6", "Faccion": null, "Apellidos": "Escudero y León", "Nombre": "Francisco", "FNac": null, "LugNac": null, "Titulo": null, "Obs": null, "Tipo": "Diputado" }, "geometry": { "type": "Point", "coordinates": [ -3.7080098558582, 40.421002313618814 ] } },
{ "type": "Feature", "properties": { "id": null, "Circuns": "Baleares", "Distrito": "Inea", "Direccion": "Amor de Dios 4", "Faccion": null, "Apellidos": "Estéban Collantes", "Nombre": "Saturnino", "FNac": null, "LugNac": null, "Titulo": null, "Obs": null, "Tipo": "Diputado" }, "geometry": { "type": "Point", "coordinates": [ -3.698463779934043, 40.412999890378991 ] } },
{ "type": "Feature", "properties": { "id": null, "Circuns": "Albacete", "Distrito": "Casas Ibañez", "Direccion": "Príncipe 12", "Faccion": null, "Apellidos": "Fabié", "Nombre": "Antonio María", "FNac": null, "LugNac": null, "Titulo": null, "Obs": null, "Tipo": "Diputado" }, "geometry": { "type": "Point", "coordinates": [ -3.700487821298217, 40.415838185123015 ] } },
{ "type": "Feature", "properties": { "id": null, "Circuns": "Barcelona", "Distrito": "Castelltersol", "Direccion": "Bolsa 12", "Faccion": null, "Apellidos": "Fabra", "Nombre": "Lino María", "FNac": null, "LugNac": null, "Titulo": null, "Obs": "He tomado la numeración de 1930. En 1879 no hay 12", "Tipo": "Diputado" }, "geometry": { "type": "Point", "coordinates": [ -3.704843833683884, 40.415078150836969 ] } },
{ "type": "Feature", "properties": { "id": null, "Circuns": "Gerona", "Distrito": "Puigcerdá", "Direccion": "Capellanes 10", "Faccion": null, "Apellidos": "Fabra y Floreta", "Nombre": "Juan", "FNac": null, "LugNac": null, "Titulo": null, "Obs": null, "Tipo": "Diputado" }, "geometry": { "type": "Point", "coordinates": [ -3.705485644760483, 40.417934160364339 ] } },
{ "type": "Feature", "properties": { "id": null, "Circuns": "Barcelona", "Distrito": "Barcelona", "Direccion": "Puerta del Sol 12. Hotel de la Paz.", "Faccion": "Partido Constitucional", "Apellidos": "Fabra y Fontanills", "Nombre": "Camilo", "FNac": null, "LugNac": null, "Titulo": null, "Obs": null, "Tipo": "Diputado" }, "geometry": { "type": "Point", "coordinates": [ -3.703810983812229, 40.417270827365151 ] } },
{ "type": "Feature", "properties": { "id": null, "Circuns": "Granada", "Distrito": "Motril", "Direccion": "Hortaleza 27", "Faccion": null, "Apellidos": "Fernández Cadórniga", "Nombre": "Gabriel", "FNac": null, "LugNac": null, "Titulo": null, "Obs": null, "Tipo": "Diputado" }, "geometry": { "type": "Point", "coordinates": [ -3.700185788013263, 40.42178564269841 ] } },
{ "type": "Feature", "properties": { "id": null, "Circuns": "Canarias", "Distrito": "Las Palmas", "Direccion": "Greda 32", "Faccion": null, "Apellidos": "Fernández Jiménez", "Nombre": "José", "FNac": null, "LugNac": null, "Titulo": null, "Obs": null, "Tipo": "Diputado" }, "geometry": { "type": "Point", "coordinates": [ -3.69517256337562, 40.417499476172694 ] } },
{ "type": "Feature", "properties": { "id": null, "Circuns": "Madrid", "Distrito": "Torrelaguna", "Direccion": "Carretas 4", "Faccion": null, "Apellidos": "Fernández de la Hoz y Rey", "Nombre": "José", "FNac": null, "LugNac": null, "Titulo": null, "Obs": null, "Tipo": "Diputado" }, "geometry": { "type": "Point", "coordinates": [ -3.703393250070314, 40.415982928842787 ] } },
{ "type": "Feature", "properties": { "id": null, "Circuns": "Pontevedra", "Distrito": "Puente-Caldelas", "Direccion": "Sordo 4", "Faccion": "Conservadores", "Apellidos": "Fernández Villaverde", "Nombre": "Raimundo", "FNac": null, "LugNac": null, "Titulo": null, "Obs": null, "Tipo": "Diputado" }, "geometry": { "type": "Point", "coordinates": [ -3.697535795946294, 40.416647233527598 ] } },
{ "type": "Feature", "properties": { "id": null, "Circuns": "Lérida", "Distrito": "Sort", "Direccion": "Pº de Recoletos 8", "Faccion": null, "Apellidos": "Ferreras", "Nombre": "José", "FNac": null, "LugNac": null, "Titulo": null, "Obs": null, "Tipo": "Diputado" }, "geometry": { "type": "Point", "coordinates": [ -3.691799330811354, 40.420779596819891 ] } },
{ "type": "Feature", "properties": { "id": null, "Circuns": "Cáceres", "Distrito": "Navalmoral", "Direccion": "Alcalá 61", "Faccion": null, "Apellidos": "Figuera Silvela", "Nombre": "Luis", "FNac": null, "LugNac": null, "Titulo": null, "Obs": null, "Tipo": "Diputado" }, "geometry": { "type": "Point", "coordinates": [ -3.691236198690059, 40.419912390853462 ] } },
{ "type": "Feature", "properties": { "id": null, "Circuns": "Segovia", "Distrito": "Segovia", "Direccion": "S. Marcos 3", "Faccion": null, "Apellidos": "Finat y Laguizamont", "Nombre": "Hipólito", "FNac": null, "LugNac": null, "Titulo": null, "Obs": null, "Tipo": "Diputado" }, "geometry": { "type": "Point", "coordinates": [ -3.699408731791155, 40.421811687694671 ] } },
{ "type": "Feature", "properties": { "id": null, "Circuns": "Gerona", "Distrito": "Olot", "Direccion": "Peligros 3", "Faccion": null, "Apellidos": "Florejachs de Berart", "Nombre": "José", "FNac": null, "LugNac": null, "Titulo": null, "Obs": null, "Tipo": "Diputado" }, "geometry": { "type": "Point", "coordinates": [ -3.69969504989027, 40.418622652883656 ] } },
{ "type": "Feature", "properties": { "id": null, "Circuns": "Pontevedra", "Distrito": "Cambados", "Direccion": "Carlos III 3", "Faccion": null, "Apellidos": "Fontan", "Nombre": "Juan Francisco", "FNac": null, "LugNac": null, "Titulo": null, "Obs": null, "Tipo": "Diputado" }, "geometry": { "type": "Point", "coordinates": [ -3.711126910051194, 40.417903340848859 ] } },
{ "type": "Feature", "properties": { "id": null, "Circuns": "Almería", "Distrito": "Velez-Rubio", "Direccion": "Fuencarral 74", "Faccion": null, "Apellidos": "Fontes y Contreras", "Nombre": "Joaquín", "FNac": null, "LugNac": null, "Titulo": null, "Obs": null, "Tipo": "Diputado" }, "geometry": { "type": "Point", "coordinates": [ -3.69934401811289, 40.422485995072719 ] } },
{ "type": "Feature", "properties": { "id": null, "Circuns": "Cádiz", "Distrito": "Medina-Sidonia", "Direccion": "Cta. de S. Domingo 5", "Faccion": null, "Apellidos": null, "Nombre": null, "FNac": null, "LugNac": null, "Titulo": "Marqués de Francos", "Obs": null, "Tipo": "Diputado" }, "geometry": { "type": "Point", "coordinates": [ -3.709821505236707, 40.41956720347477 ] } },
{ "type": "Feature", "properties": { "id": null, "Circuns": "Zaragoza", "Distrito": "Daroca", "Direccion": "Fuencarral 51", "Faccion": null, "Apellidos": "Fuentes", "Nombre": "Román", "FNac": null, "LugNac": null, "Titulo": null, "Obs": null, "Tipo": "Diputado" }, "geometry": { "type": "Point", "coordinates": [ -3.699343855495942, 40.42292707139319 ] } },
{ "type": "Feature", "properties": { "id": null, "Circuns": "Baleares", "Distrito": "Palma", "Direccion": "Arenal 2", "Faccion": null, "Apellidos": "Fúester y Dezcallar", "Nombre": "Juan Antonio", "FNac": null, "LugNac": null, "Titulo": null, "Obs": null, "Tipo": "Diputado" }, "geometry": { "type": "Point", "coordinates": [ -3.704905958747957, 40.417007465601003 ] } },
{ "type": "Feature", "properties": { "id": null, "Circuns": "Cádiz", "Distrito": "Sanlúcar", "Direccion": "Corredera Baja 41", "Faccion": null, "Apellidos": "Gabril y Ruiz de Apodaca", "Nombre": "Fernando", "FNac": null, "LugNac": null, "Titulo": null, "Obs": null, "Tipo": "Diputado" }, "geometry": { "type": "Point", "coordinates": [ -3.70333701595696, 40.422997419381431 ] } },
{ "type": "Feature", "properties": { "id": null, "Circuns": "Salamanca", "Distrito": "Vitigudino", "Direccion": "Leganitos 59", "Faccion": null, "Apellidos": "Galante y Rupérez", "Nombre": "Antonio", "FNac": null, "LugNac": null, "Titulo": null, "Obs": null, "Tipo": "Diputado" }, "geometry": { "type": "Point", "coordinates": [ -3.712019577596975, 40.424311415206098 ] } },
{ "type": "Feature", "properties": { "id": null, "Circuns": "Valladolid", "Distrito": "Medina del Campo", "Direccion": "Barquillo 9", "Faccion": null, "Apellidos": "Gamazo Calvo", "Nombre": "Germán", "FNac": null, "LugNac": null, "Titulo": null, "Obs": null, "Tipo": "Diputado" }, "geometry": { "type": "Point", "coordinates": [ -3.695814599713064, 40.42154343803832 ] } },
{ "type": "Feature", "properties": { "id": null, "Circuns": "Lérida", "Distrito": "Seo de Urgel", "Direccion": "Pez 22", "Faccion": null, "Apellidos": "Gambel y Aybar", "Nombre": "Constantino", "FNac": null, "LugNac": null, "Titulo": null, "Obs": null, "Tipo": "Diputado" }, "geometry": { "type": "Point", "coordinates": [ -3.705105089844439, 40.423705051766063 ] } },
{ "type": "Feature", "properties": { "id": null, "Circuns": "Málaga", "Distrito": "Málaga", "Direccion": "Alcalá 2. Hotel de París", "Faccion": null, "Apellidos": "García Asensio", "Nombre": "Enrique", "FNac": null, "LugNac": null, "Titulo": null, "Obs": null, "Tipo": "Diputado" }, "geometry": { "type": "Point", "coordinates": [ -3.702188223729069, 40.416911222913136 ] } },
{ "type": "Feature", "properties": { "id": null, "Circuns": "Córdoba", "Distrito": "Hinojosa", "Direccion": "Tr. del Arenal 1", "Faccion": null, "Apellidos": "García Balsera", "Nombre": "Pedro", "FNac": null, "LugNac": null, "Titulo": null, "Obs": null, "Tipo": "Diputado" }, "geometry": { "type": "Point", "coordinates": [ -3.705949092910992, 40.416608288843257 ] } },
{ "type": "Feature", "properties": { "id": null, "Circuns": "Lugo", "Distrito": "Becerra", "Direccion": "Carbón 2", "Faccion": null, "Apellidos": "García Camba", "Nombre": "Miguel", "FNac": null, "LugNac": null, "Titulo": null, "Obs": null, "Tipo": "Diputado" }, "geometry": { "type": "Point", "coordinates": [ -3.702936765151595, 40.420127812739786 ] } },
{ "type": "Feature", "properties": { "id": null, "Circuns": "Almería", "Distrito": "Sorbás", "Direccion": "Infantas 13", "Faccion": null, "Apellidos": "García López", "Nombre": "Juan", "FNac": null, "LugNac": null, "Titulo": null, "Obs": null, "Tipo": "Diputado" }, "geometry": { "type": "Point", "coordinates": [ -3.698767228742808, 40.420550833830475 ] } },
{ "type": "Feature", "properties": { "id": null, "Circuns": "Jaén", "Distrito": "Villacarrillo", "Direccion": "Puerta del Sol 14", "Faccion": null, "Apellidos": "García de Zuñiga y López", "Nombre": "Pablo", "FNac": null, "LugNac": null, "Titulo": null, "Obs": null, "Tipo": "Diputado" }, "geometry": { "type": "Point", "coordinates": [ -3.702712398023976, 40.417174991554219 ] } },
{ "type": "Feature", "properties": { "id": null, "Circuns": "Logroño", "Distrito": "Torrecilla", "Direccion": "Claudio Coello 17", "Faccion": null, "Apellidos": "Garrido", "Nombre": "Esteban", "FNac": null, "LugNac": null, "Titulo": null, "Obs": null, "Tipo": "Diputado" }, "geometry": { "type": "Point", "coordinates": [ -3.686809154240043, 40.424853291783506 ] } },
{ "type": "Feature", "properties": { "id": null, "Circuns": "Cádiz", "Distrito": "Arcos de la Frontera", "Direccion": "Magdalena 27", "Faccion": null, "Apellidos": "Garrido Estrada", "Nombre": "Eduaro", "FNac": null, "LugNac": null, "Titulo": null, "Obs": null, "Tipo": "Diputado" }, "geometry": { "type": "Point", "coordinates": [ -3.700079786225105, 40.412466575303 ] } },
{ "type": "Feature", "properties": { "id": null, "Circuns": "Tarragona", "Distrito": "Ganesa", "Direccion": "Carr. de S. Gerónimo 5-7", "Faccion": null, "Apellidos": "Gasset y Matheu", "Nombre": "Eduardo", "FNac": null, "LugNac": null, "Titulo": null, "Obs": null, "Tipo": "Diputado" }, "geometry": { "type": "Point", "coordinates": [ -3.701503706952365, 40.416813433970511 ] } },
{ "type": "Feature", "properties": { "id": null, "Circuns": "Caguas", "Distrito": "Puerto Rico", "Direccion": "S. Nicolás 15", "Faccion": null, "Apellidos": "Gavina y Álvarez", "Nombre": "Luís", "FNac": null, "LugNac": null, "Titulo": null, "Obs": null, "Tipo": "Diputado" }, "geometry": { "type": "Point", "coordinates": [ -3.712061393731, 40.416632573467076 ] } },
{ "type": "Feature", "properties": { "id": null, "Circuns": "Cádiz", "Distrito": "Cádiz", "Direccion": "Alcalá 2. Hotel de París", "Faccion": null, "Apellidos": "Genovés", "Nombre": "Eduardo", "FNac": null, "LugNac": null, "Titulo": null, "Obs": null, "Tipo": "Diputado" }, "geometry": { "type": "Point", "coordinates": [ -3.702076364558265, 40.417007098953192 ] } },
{ "type": "Feature", "properties": { "id": null, "Circuns": "Murcia", "Distrito": "Lorca", "Direccion": "Recoletos 19", "Faccion": "Conservadores", "Apellidos": "Gisbert", "Nombre": "Lope", "FNac": null, "LugNac": null, "Titulo": null, "Obs": "El 17 son 2 edificios", "Tipo": "Diputado" }, "geometry": { "type": "Point", "coordinates": [ -3.68936085317847, 40.421702791018873 ] } },
{ "type": "Feature", "properties": { "id": null, "Circuns": "Alicante", "Distrito": "Peyo", "Direccion": "Barquillo 27", "Faccion": null, "Apellidos": "Gómez Ortega", "Nombre": "José", "FNac": null, "LugNac": null, "Titulo": null, "Obs": null, "Tipo": "Diputado" }, "geometry": { "type": "Point", "coordinates": [ -3.695705274743539, 40.423304605450973 ] } },
{ "type": "Feature", "properties": { "id": null, "Circuns": "Toledo", "Distrito": "Ocaña", "Direccion": "Lista 5", "Faccion": null, "Apellidos": "González", "Nombre": "Venancio", "FNac": null, "LugNac": null, "Titulo": null, "Obs": null, "Tipo": "Diputado" }, "geometry": { "type": "Point", "coordinates": [ -3.687601133053356, 40.430699242900346 ] } },
{ "type": "Feature", "properties": { "id": null, "Circuns": "Cáceres", "Distrito": "Coria", "Direccion": "Pl. de Bilbao 1", "Faccion": null, "Apellidos": "González Alonso", "Nombre": "Juan", "FNac": null, "LugNac": null, "Titulo": null, "Obs": null, "Tipo": "Diputado" }, "geometry": { "type": "Point", "coordinates": [ -3.69995881119795, 40.420982009391373 ] } },
{ "type": "Feature", "properties": { "id": null, "Circuns": "Murcia", "Distrito": "Murcia", "Direccion": "Cta. de S. Domingo 7", "Faccion": null, "Apellidos": "González Conde y González", "Nombre": "Diego", "FNac": null, "LugNac": null, "Titulo": null, "Obs": null, "Tipo": "Diputado" }, "geometry": { "type": "Point", "coordinates": [ -3.709532512164845, 40.419841402311228 ] } },
{ "type": "Feature", "properties": { "id": null, "Circuns": "Cáceres", "Distrito": "Los Hoyos", "Direccion": "Mayor 35", "Faccion": null, "Apellidos": "González Fiori", "Nombre": "Joaquín", "FNac": null, "LugNac": null, "Titulo": null, "Obs": null, "Tipo": "Diputado" }, "geometry": { "type": "Point", "coordinates": [ -3.70649823489896, 40.416188383831468 ] } },
{ "type": "Feature", "properties": { "id": null, "Circuns": "Cuenca", "Distrito": "Tarancón", "Direccion": "Barquillo 29", "Faccion": null, "Apellidos": "González y Goyenche", "Nombre": "Isaac", "FNac": null, "LugNac": null, "Titulo": null, "Obs": null, "Tipo": "Diputado" }, "geometry": { "type": "Point", "coordinates": [ -3.6956989686614, 40.423427483173107 ] } },
{ "type": "Feature", "properties": { "id": null, "Circuns": "Burgos", "Distrito": "Salas", "Direccion": "Carmen 38", "Faccion": null, "Apellidos": "González Marrón", "Nombre": "Pedro", "FNac": null, "LugNac": null, "Titulo": null, "Obs": null, "Tipo": "Diputado" }, "geometry": { "type": "Point", "coordinates": [ -3.705256498768679, 40.419571169113254 ] } },
{ "type": "Feature", "properties": { "id": null, "Circuns": "Cádiz", "Distrito": "Sanlúcar", "Direccion": "Puerta del Sol 12", "Faccion": null, "Apellidos": "González Peña", "Nombre": "Manuel", "FNac": null, "LugNac": null, "Titulo": null, "Obs": null, "Tipo": "Diputado" }, "geometry": { "type": "Point", "coordinates": [ -3.70373024560228, 40.41728464204175 ] } },
{ "type": "Feature", "properties": { "id": null, "Circuns": "Oviedo", "Distrito": "Laviana", "Direccion": "Ferraz 32", "Faccion": null, "Apellidos": "González Reguera", "Nombre": "Salustiano", "FNac": null, "LugNac": null, "Titulo": null, "Obs": null, "Tipo": "Diputado" }, "geometry": { "type": "Point", "coordinates": [ -3.718155524363391, 40.427291846439324 ] } },
{ "type": "Feature", "properties": { "id": null, "Circuns": "Navarra", "Distrito": "Baztán", "Direccion": "Argensola 2", "Faccion": null, "Apellidos": "González Vallarino", "Nombre": "Felipe", "FNac": null, "LugNac": null, "Titulo": null, "Obs": null, "Tipo": "Diputado" }, "geometry": { "type": "Point", "coordinates": [ -3.695038422082897, 40.424861110266633 ] } },
{ "type": "Feature", "properties": { "id": null, "Circuns": "Almería", "Distrito": "Berja", "Direccion": "Puerta del Sol 14", "Faccion": null, "Apellidos": "González Vázquez", "Nombre": "Telesforo", "FNac": null, "LugNac": null, "Titulo": null, "Obs": null, "Tipo": "Diputado" }, "geometry": { "type": "Point", "coordinates": [ -3.702724341528298, 40.417226244969712 ] } },
{ "type": "Feature", "properties": { "id": null, "Circuns": "Guipúzcoa", "Distrito": "Azpeitia", "Direccion": "Madera 1", "Faccion": null, "Apellidos": "Gorostidi y Albéniz", "Nombre": "Francisco", "FNac": null, "LugNac": null, "Titulo": null, "Obs": null, "Tipo": "Diputado" }, "geometry": { "type": "Point", "coordinates": [ -3.705739080290561, 40.422320432762746 ] } },
{ "type": "Feature", "properties": { "id": null, "Circuns": "Cuenca", "Distrito": "Motilla", "Direccion": "Puerta del Sol 5 y 7", "Faccion": null, "Apellidos": "Gonsalvez y Barceló", "Nombre": "Modesto", "FNac": null, "LugNac": null, "Titulo": null, "Obs": "En 1880 Pta del Sol 13", "Tipo": "Diputado" }, "geometry": { "type": "Point", "coordinates": [ -3.702855343238024, 40.416558849235678 ] } },
{ "type": "Feature", "properties": { "id": null, "Circuns": "Alicante", "Distrito": "Villajoyosa", "Direccion": "Fuencarral 7", "Faccion": null, "Apellidos": "Grotzard", "Nombre": "Alejandro", "FNac": null, "LugNac": null, "Titulo": null, "Obs": null, "Tipo": "Diputado" }, "geometry": { "type": "Point", "coordinates": [ -3.701787559918331, 40.420049369786575 ] } },
{ "type": "Feature", "properties": { "id": null, "Circuns": "León", "Distrito": "La Vecilla", "Direccion": "Greda 34", "Faccion": null, "Apellidos": "Grotta y Ortíz", "Nombre": "Carlos", "FNac": null, "LugNac": null, "Titulo": null, "Obs": null, "Tipo": "Diputado" }, "geometry": { "type": "Point", "coordinates": [ -3.694892625290008, 40.417459897964584 ] } },
{ "type": "Feature", "properties": { "id": null, "Circuns": "Cuenca", "Distrito": "Huete", "Direccion": "Serrano 2", "Faccion": null, "Apellidos": null, "Nombre": null, "FNac": null, "LugNac": null, "Titulo": "Marqués de Guadalest", "Obs": null, "Tipo": "Diputado" }, "geometry": { "type": "Point", "coordinates": [ -3.688041174471267, 40.422763818371301 ] } },
{ "type": "Feature", "properties": { "id": null, "Circuns": "Madrid", "Distrito": "Alcalá", "Direccion": "Pizarro 19", "Faccion": null, "Apellidos": "Guihou", "Nombre": "Enrique", "FNac": null, "LugNac": null, "Titulo": null, "Obs": null, "Tipo": "Diputado" }, "geometry": { "type": "Point", "coordinates": [ -3.705722970766438, 40.423525212228682 ] } },
{ "type": "Feature", "properties": { "id": null, "Circuns": "Guadalajara", "Distrito": "Molina", "Direccion": "Silva 34", "Faccion": null, "Apellidos": "Guillelmi", "Nombre": "Lorenzo", "FNac": null, "LugNac": null, "Titulo": null, "Obs": null, "Tipo": "Diputado" }, "geometry": { "type": "Point", "coordinates": [ -3.706244393388037, 40.421227180105312 ] } },
{ "type": "Feature", "properties": { "id": null, "Circuns": "Murcia", "Distrito": "Murcia", "Direccion": "Prado 24", "Faccion": null, "Apellidos": "Guirao y Navarro", "Nombre": "Ángel", "FNac": null, "LugNac": null, "Titulo": null, "Obs": null, "Tipo": "Diputado" }, "geometry": { "type": "Point", "coordinates": [ -3.697926314683059, 40.414971321392429 ] } },
{ "type": "Feature", "properties": { "id": null, "Circuns": "Pontevedra", "Distrito": "Estrada", "Direccion": "Atocha 133", "Faccion": null, "Apellidos": "Guitierrez de la Cámara", "Nombre": "Emilio", "FNac": null, "LugNac": null, "Titulo": null, "Obs": null, "Tipo": "Diputado" }, "geometry": { "type": "Point", "coordinates": [ -3.695460964564761, 40.410743367748601 ] } },
{ "type": "Feature", "properties": { "id": null, "Circuns": "Coruña", "Distrito": "Coruña", "Direccion": "Soldado 1 dup", "Faccion": null, "Apellidos": "Heree y Cocimes-Grey", "Nombre": "Aquilino", "FNac": null, "LugNac": null, "Titulo": null, "Obs": null, "Tipo": "Diputado" }, "geometry": { "type": "Point", "coordinates": [ -3.698376261810887, 40.420791373633577 ] } },
{ "type": "Feature", "properties": { "id": null, "Circuns": "Navarra", "Distrito": "Tudela", "Direccion": "Fernando el Santo 10-12", "Faccion": null, "Apellidos": null, "Nombre": null, "FNac": null, "LugNac": null, "Titulo": "Conde de Heredia Spinola", "Obs": null, "Tipo": "Diputado" }, "geometry": { "type": "Point", "coordinates": [ -3.693363048360625, 40.428022329781726 ] } },
{ "type": "Feature", "properties": { "id": null, "Circuns": "Coruña", "Distrito": "Arzúa", "Direccion": "Alcalá 7", "Faccion": null, "Apellidos": "Hermida y Verea", "Nombre": "Benito María", "FNac": null, "LugNac": null, "Titulo": null, "Obs": null, "Tipo": "Diputado" }, "geometry": { "type": "Point", "coordinates": [ -3.701796994643911, 40.417367087961573 ] } },
{ "type": "Feature", "properties": { "id": null, "Circuns": "Guadalajara", "Distrito": "Bruhuega", "Direccion": "Mayor 108-110", "Faccion": null, "Apellidos": "Hernández y López", "Nombre": "Antonio", "FNac": null, "LugNac": null, "Titulo": null, "Obs": null, "Tipo": "Diputado" }, "geometry": { "type": "Point", "coordinates": [ -3.710395000887608, 40.415666181357921 ] } },
{ "type": "Feature", "properties": { "id": null, "Circuns": "Córdoba", "Distrito": "Priego", "Direccion": "Alcalá 65", "Faccion": null, "Apellidos": null, "Nombre": null, "FNac": null, "LugNac": null, "Titulo": "Duque de Hornachuelos", "Obs": null, "Tipo": "Diputado" }, "geometry": { "type": "Point", "coordinates": [ -3.690172063157903, 40.420047607031151 ] } },
{ "type": "Feature", "properties": { "id": null, "Circuns": "Córdoba", "Distrito": "Montoro", "Direccion": "Lobo 27", "Faccion": null, "Apellidos": "Isasa y Valseca", "Nombre": "Santos de", "FNac": null, "LugNac": null, "Titulo": null, "Obs": null, "Tipo": "Diputado" }, "geometry": { "type": "Point", "coordinates": [ -3.69941122335216, 40.414427376653123 ] } },
{ "type": "Feature", "properties": { "id": null, "Circuns": "Castellón", "Distrito": "Albocacer", "Direccion": "Jacometrezo 72", "Faccion": null, "Apellidos": "Jiménez y García", "Nombre": "Gregorio", "FNac": null, "LugNac": null, "Titulo": null, "Obs": null, "Tipo": "Diputado" }, "geometry": { "type": "Point", "coordinates": [ -3.706331270118107, 40.420235616165002 ] } },
{ "type": "Feature", "properties": { "id": null, "Circuns": "Teruel", "Distrito": "Alcañiz", "Direccion": "Atocha 16", "Faccion": null, "Apellidos": "Jiménez Gil", "Nombre": "Francisco", "FNac": null, "LugNac": null, "Titulo": null, "Obs": null, "Tipo": "Diputado" }, "geometry": { "type": "Point", "coordinates": [ -3.70268463462451, 40.413760235262018 ] } },
{ "type": "Feature", "properties": { "id": null, "Circuns": "Albacete", "Distrito": "Alcaraz", "Direccion": "S. Lorenzo 11", "Faccion": null, "Apellidos": "Jiménez y Gotall", "Nombre": "Carlos", "FNac": null, "LugNac": null, "Titulo": null, "Obs": null, "Tipo": "Diputado" }, "geometry": { "type": "Point", "coordinates": [ -3.698835952452474, 40.425165399755507 ] } },
{ "type": "Feature", "properties": { "id": null, "Circuns": "Oviedo", "Distrito": "Pravia", "Direccion": "Reina 11", "Faccion": null, "Apellidos": "Jove y Hévia", "Nombre": "Plácido", "FNac": null, "LugNac": null, "Titulo": null, "Obs": null, "Tipo": "Diputado" }, "geometry": { "type": "Point", "coordinates": [ -3.700257610332154, 40.420471577483241 ] } },
{ "type": "Feature", "properties": { "id": null, "Circuns": "Madrid", "Distrito": "Chinchón", "Direccion": "Arenal 20", "Faccion": null, "Apellidos": "Juez Sarmiento y Bañuelos", "Nombre": "Felipe", "FNac": null, "LugNac": null, "Titulo": null, "Obs": null, "Tipo": "Diputado" }, "geometry": { "type": "Point", "coordinates": [ -3.706829146595225, 40.417443445466304 ] } },
{ "type": "Feature", "properties": { "id": null, "Circuns": "Málaga", "Distrito": "Archidona", "Direccion": "S. Agustín 4", "Faccion": null, "Apellidos": "Lafuente Casamayor", "Nombre": "José", "FNac": null, "LugNac": null, "Titulo": null, "Obs": null, "Tipo": "Diputado" }, "geometry": { "type": "Point", "coordinates": [ -3.697024307066873, 40.414784206055657 ] } },
{ "type": "Feature", "properties": { "id": null, "Circuns": "Málaga", "Distrito": "Vélez-Málaga", "Direccion": "Turco 6", "Faccion": null, "Apellidos": "Larios y Larios", "Nombre": "Martín", "FNac": null, "LugNac": null, "Titulo": null, "Obs": null, "Tipo": "Diputado" }, "geometry": { "type": "Point", "coordinates": [ -3.695679291250608, 40.417474682063535 ] } },
{ "type": "Feature", "properties": { "id": null, "Circuns": "Puerto Rico", "Distrito": "Sabana Grande", "Direccion": "Concepción Gerónima 24-26", "Faccion": null, "Apellidos": "Ledesma y Navajas", "Nombre": "Enrique", "FNac": null, "LugNac": null, "Titulo": null, "Obs": null, "Tipo": "Diputado" }, "geometry": { "type": "Point", "coordinates": [ -3.706763058051017, 40.41396753679345 ] } },
{ "type": "Feature", "properties": { "id": null, "Circuns": "Canarias", "Distrito": "Guía", "Direccion": "Lope de Vega 39", "Faccion": null, "Apellidos": "León y Castillo", "Nombre": "Fernando", "FNac": null, "LugNac": null, "Titulo": null, "Obs": null, "Tipo": "Diputado" }, "geometry": { "type": "Point", "coordinates": [ -3.696584876855656, 40.413778324183859 ] } },
{ "type": "Feature", "properties": { "id": null, "Circuns": "Coruña", "Distrito": "Carballo", "Direccion": "Clavel 2", "Faccion": null, "Apellidos": "Linares Rivas", "Nombre": "Aureliano", "FNac": null, "LugNac": null, "Titulo": null, "Obs": null, "Tipo": "Diputado" }, "geometry": { "type": "Point", "coordinates": [ -3.69970641882265, 40.41947972480795 ] } },
{ "type": "Feature", "properties": { "id": null, "Circuns": "Guipúzcoa", "Distrito": "Vergara", "Direccion": "Isabel la Católica 12", "Faccion": null, "Apellidos": null, "Nombre": null, "FNac": null, "LugNac": null, "Titulo": "Conde de Llobregat", "Obs": null, "Tipo": "Diputado" }, "geometry": { "type": "Point", "coordinates": [ -3.709180337815985, 40.42185906060184 ] } },
{ "type": "Feature", "properties": { "id": null, "Circuns": "Madrid", "Distrito": "Madrid", "Direccion": "S. Quintín 8", "Faccion": "Conservadores", "Apellidos": "López de Ayala", "Nombre": "Adelardo", "FNac": null, "LugNac": null, "Titulo": null, "Obs": null, "Tipo": "Diputado" }, "geometry": { "type": "Point", "coordinates": [ -3.71248681913252, 40.419676431088597 ] } },
{ "type": "Feature", "properties": { "id": null, "Circuns": "Badajoz", "Distrito": "Almendralejo", "Direccion": "Carr. de S. Gerónimo 5-7", "Faccion": null, "Apellidos": "López de Ayala", "Nombre": "Baltasar", "FNac": null, "LugNac": null, "Titulo": null, "Obs": null, "Tipo": "Diputado" }, "geometry": { "type": "Point", "coordinates": [ -3.70159047461029, 40.41681776121635 ] } },
{ "type": "Feature", "properties": { "id": null, "Circuns": "Málaga", "Distrito": "Coín", "Direccion": "Sordo 31", "Faccion": null, "Apellidos": "López Domínguez", "Nombre": "José", "FNac": null, "LugNac": null, "Titulo": null, "Obs": null, "Tipo": "Diputado" }, "geometry": { "type": "Point", "coordinates": [ -3.695127745954937, 40.416918700779419 ] } },
{ "type": "Feature", "properties": { "id": null, "Circuns": "Toledo", "Distrito": "Puente del Arzobispo", "Direccion": "Cta. de Sto Domingo 4", "Faccion": null, "Apellidos": "López y González", "Nombre": "Elías", "FNac": null, "LugNac": null, "Titulo": null, "Obs": null, "Tipo": "Diputado" }, "geometry": { "type": "Point", "coordinates": [ -3.709913948664591, 40.419060607231863 ] } },
{ "type": "Feature", "properties": { "id": null, "Circuns": "Teruel", "Distrito": "Mora", "Direccion": "Reina 33", "Faccion": null, "Apellidos": "López Guijarro", "Nombre": "Salvador", "FNac": null, "LugNac": null, "Titulo": null, "Obs": null, "Tipo": "Diputado" }, "geometry": { "type": "Point", "coordinates": [ -3.698745229898668, 40.420036467062282 ] } },
{ "type": "Feature", "properties": { "id": null, "Circuns": "Salamanca", "Distrito": "Ledesma", "Direccion": "Magdalena 3", "Faccion": null, "Apellidos": "López Gutiérrez", "Nombre": "Diego", "FNac": null, "LugNac": null, "Titulo": null, "Obs": null, "Tipo": "Diputado" }, "geometry": { "type": "Point", "coordinates": [ -3.702874975177749, 40.412546433663032 ] } },
{ "type": "Feature", "properties": { "id": null, "Circuns": "Málaga", "Distrito": "Málaga", "Direccion": "Alcalá 23", "Faccion": null, "Apellidos": "Loring", "Nombre": "Jorge", "FNac": null, "LugNac": null, "Titulo": null, "Obs": null, "Tipo": "Diputado" }, "geometry": { "type": "Point", "coordinates": [ -3.698673643999058, 40.4183692645436 ] } },
{ "type": "Feature", "properties": { "id": null, "Circuns": "Lugo", "Distrito": "Sarria", "Direccion": "Palma alta 8", "Faccion": null, "Apellidos": "López y López", "Nombre": "Matías", "FNac": null, "LugNac": null, "Titulo": null, "Obs": null, "Tipo": "Diputado" }, "geometry": { "type": "Point", "coordinates": [ -3.702338842314219, 40.426261633057663 ] } },
{ "type": "Feature", "properties": { "id": null, "Circuns": "Badajoz", "Distrito": "Llerena", "Direccion": "Carr. de S. Gerónimo 16", "Faccion": null, "Apellidos": "Maesso", "Nombre": "Narciso", "FNac": null, "LugNac": null, "Titulo": null, "Obs": null, "Tipo": "Diputado" }, "geometry": { "type": "Point", "coordinates": [ -3.700905865982611, 40.416531934457538 ] } },
{ "type": "Feature", "properties": { "id": null, "Circuns": "Salamanca", "Distrito": "Sequeros", "Direccion": "Reina 33", "Faccion": null, "Apellidos": "Maldonado Macanaz", "Nombre": "Joaquín", "FNac": null, "LugNac": null, "Titulo": null, "Obs": null, "Tipo": "Diputado" }, "geometry": { "type": "Point", "coordinates": [ -3.698666986392975, 40.420015778706905 ] } },
{ "type": "Feature", "properties": { "id": null, "Circuns": "Toledo", "Distrito": "Talavera", "Direccion": "S. Juan 58", "Faccion": null, "Apellidos": null, "Nombre": null, "FNac": null, "LugNac": null, "Titulo": "Marqués de Malpica", "Obs": null, "Tipo": "Diputado" }, "geometry": { "type": "Point", "coordinates": [ -3.694149740619697, 40.412524556258987 ] } },
{ "type": "Feature", "properties": { "id": null, "Circuns": "Oviedo", "Distrito": "Infiesto", "Direccion": "Florín 2 dup", "Faccion": null, "Apellidos": null, "Nombre": null, "FNac": null, "LugNac": null, "Titulo": "Vizconde de Manzanera", "Obs": null, "Tipo": "Diputado" }, "geometry": { "type": "Point", "coordinates": [ -3.69608321067623, 40.416327906312397 ] } },
{ "type": "Feature", "properties": { "id": null, "Circuns": "Madrid", "Distrito": "Getafe", "Direccion": "León 8", "Faccion": null, "Apellidos": "Marín y Duro", "Nombre": "Agustín", "FNac": null, "LugNac": null, "Titulo": null, "Obs": null, "Tipo": "Diputado" }, "geometry": { "type": "Point", "coordinates": [ -3.698760522674245, 40.414497042802175 ] } },
{ "type": "Feature", "properties": { "id": null, "Circuns": "Jaén", "Distrito": "Jaén", "Direccion": "Alcalá 17 dup", "Faccion": null, "Apellidos": "Mariscal", "Nombre": "Antonio", "FNac": null, "LugNac": null, "Titulo": null, "Obs": null, "Tipo": "Diputado" }, "geometry": { "type": "Point", "coordinates": [ -3.70002179240323, 40.417970163485933 ] } },
{ "type": "Feature", "properties": { "id": null, "Circuns": "Huelva", "Distrito": "Valverde", "Direccion": "Barquillo 4", "Faccion": null, "Apellidos": "Martín de Oliva y ROmero", "Nombre": "Manuel", "FNac": null, "LugNac": null, "Titulo": null, "Obs": null, "Tipo": "Diputado" }, "geometry": { "type": "Point", "coordinates": [ -3.695471729187949, 40.419642870890932 ] } },
{ "type": "Feature", "properties": { "id": null, "Circuns": "Palencia", "Distrito": "Cervera", "Direccion": "S. Agustín 12", "Faccion": null, "Apellidos": "Martín Veña", "Nombre": "Manuel", "FNac": null, "LugNac": null, "Titulo": null, "Obs": null, "Tipo": "Diputado" }, "geometry": { "type": "Point", "coordinates": [ -3.697096421604489, 40.414074388856854 ] } },
{ "type": "Feature", "properties": { "id": null, "Circuns": "Lugo", "Distrito": "Mondaédo", "Direccion": "Mayor 1. Hotel de Madrid", "Faccion": null, "Apellidos": "Martínez", "Nombre": "Cándido", "FNac": null, "LugNac": null, "Titulo": null, "Obs": null, "Tipo": "Diputado" }, "geometry": { "type": "Point", "coordinates": [ -3.704691278651706, 40.416421350861199 ] } },
{ "type": "Feature", "properties": { "id": null, "Circuns": "Álava", "Distrito": "Amurrio", "Direccion": "Jacometrezo 36-38", "Faccion": null, "Apellidos": "Martínez de Aragón", "Nombre": "Bruno", "FNac": null, "LugNac": null, "Titulo": null, "Obs": null, "Tipo": "Diputado" }, "geometry": { "type": "Point", "coordinates": [ -3.703744135477357, 40.42021269999929 ] } },
{ "type": "Feature", "properties": { "id": null, "Circuns": "Barcelona", "Distrito": "Granollers", "Direccion": "Alcalá 17 dup", "Faccion": null, "Apellidos": "Maspons y Labrón", "Nombre": "Mariano", "FNac": null, "LugNac": null, "Titulo": null, "Obs": null, "Tipo": "Diputado" }, "geometry": { "type": "Point", "coordinates": [ -3.699960967414246, 40.417990524767596 ] } },
{ "type": "Feature", "properties": { "id": null, "Circuns": "Valencia", "Distrito": "Albaida", "Direccion": "Requena 9", "Faccion": null, "Apellidos": "Mayans y Enriquez", "Nombre": "Luís", "FNac": null, "LugNac": null, "Titulo": null, "Obs": null, "Tipo": "Diputado" }, "geometry": { "type": "Point", "coordinates": [ -3.712686236945357, 40.417022640595889 ] } },
{ "type": "Feature", "properties": { "id": null, "Circuns": "Murcia", "Distrito": "Murcia", "Direccion": "Clavel 3", "Faccion": null, "Apellidos": "Melgarejo y Florez", "Nombre": "Francisco", "FNac": null, "LugNac": null, "Titulo": null, "Obs": null, "Tipo": "Diputado" }, "geometry": { "type": "Point", "coordinates": [ -3.69980218861438, 40.419851269533559 ] } },
{ "type": "Feature", "properties": { "id": null, "Circuns": "Orense", "Distrito": "Rivadavia", "Direccion": "Cervantes 22", "Faccion": null, "Apellidos": "Merelles Caula", "Nombre": "Adolfo", "FNac": null, "LugNac": null, "Titulo": null, "Obs": null, "Tipo": "Diputado" }, "geometry": { "type": "Point", "coordinates": [ -3.697314923341386, 40.414217354552491 ] } },
{ "type": "Feature", "properties": { "id": null, "Circuns": "Navarra", "Distrito": "Estella", "Direccion": "Carr. de San Gerónimo 34. Hotel de Rusia", "Faccion": null, "Apellidos": "Miguel y Monleón", "Nombre": "Fructuoso de", "FNac": null, "LugNac": null, "Titulo": null, "Obs": null, "Tipo": "Diputado" }, "geometry": { "type": "Point", "coordinates": [ -3.699293819667152, 40.416435846686362 ] } },
{ "type": "Feature", "properties": { "id": null, "Circuns": "León", "Distrito": "La Baéza", "Direccion": "P de Isabel II 4", "Faccion": null, "Apellidos": "Miranda", "Nombre": "Fausto", "FNac": null, "LugNac": null, "Titulo": null, "Obs": "Debe ser un error. EL 4 es el Teatro Real", "Tipo": "Diputado" }, "geometry": { "type": "Point", "coordinates": [ -3.709446033747249, 40.418570584433191 ] } },
{ "type": "Feature", "properties": { "id": null, "Circuns": "Salamanca", "Distrito": "Bejar", "Direccion": "Hileras 8", "Faccion": null, "Apellidos": "Miranda Bueno", "Nombre": "Leoncio", "FNac": null, "LugNac": null, "Titulo": null, "Obs": null, "Tipo": "Diputado" }, "geometry": { "type": "Point", "coordinates": [ -3.707969018193492, 40.417150209938747 ] } },
{ "type": "Feature", "properties": { "id": null, "Circuns": "Valencia", "Distrito": "Enguera", "Direccion": "Relatores 13", "Faccion": null, "Apellidos": null, "Nombre": null, "FNac": null, "LugNac": null, "Titulo": "Marqués de Mirasol", "Obs": null, "Tipo": "Diputado" }, "geometry": { "type": "Point", "coordinates": [ -3.703152412432406, 40.412867178848117 ] } },
{ "type": "Feature", "properties": { "id": null, "Circuns": "Palencia", "Distrito": "Palencia", "Direccion": "Mayor 1. Hotel de Madrid", "Faccion": null, "Apellidos": "Monedero y Monedero", "Nombre": "Juan", "FNac": null, "LugNac": null, "Titulo": null, "Obs": null, "Tipo": "Diputado" }, "geometry": { "type": "Point", "coordinates": [ -3.704754567126319, 40.416415750877867 ] } },
{ "type": "Feature", "properties": { "id": null, "Circuns": "Palencia", "Distrito": "Astudillo", "Direccion": "Mayor 1. Hotel de Madrid", "Faccion": null, "Apellidos": "Monedero Díez Quijada", "Nombre": "Fernando", "FNac": null, "LugNac": null, "Titulo": null, "Obs": null, "Tipo": "Diputado" }, "geometry": { "type": "Point", "coordinates": [ -3.704636768489815, 40.416427642198208 ] } },
{ "type": "Feature", "properties": { "id": null, "Circuns": "Córdoba", "Distrito": "Posadas", "Direccion": "Carr. de San Gerónimo 34. Hotel de Rusia", "Faccion": null, "Apellidos": null, "Nombre": null, "FNac": null, "LugNac": null, "Titulo": "Marqués de Monte-Sion", "Obs": null, "Tipo": "Diputado" }, "geometry": { "type": "Point", "coordinates": [ -3.699043807358529, 40.416429953762979 ] } },
{ "type": "Feature", "properties": { "id": null, "Circuns": "Toledo", "Distrito": "Illescas", "Direccion": "Tudescos 32", "Faccion": null, "Apellidos": "Montes y Verde Soto", "Nombre": "Gregorio", "FNac": null, "LugNac": null, "Titulo": null, "Obs": null, "Tipo": "Diputado" }, "geometry": { "type": "Point", "coordinates": [ -3.705605329073296, 40.420975036304725 ] } },
{ "type": "Feature", "properties": { "id": null, "Circuns": "Tarragona", "Distrito": "Tarragona", "Direccion": "Luna 11", "Faccion": null, "Apellidos": "Montolín y Sarriera", "Nombre": "Plácido María", "FNac": null, "LugNac": null, "Titulo": null, "Obs": null, "Tipo": "Diputado" }, "geometry": { "type": "Point", "coordinates": [ -3.705369443550947, 40.421641673078426 ] } },
{ "type": "Feature", "properties": { "id": null, "Circuns": "Navarra", "Distrito": "Olza", "Direccion": "Fuencarral 25", "Faccion": null, "Apellidos": "Morales y Gómez", "Nombre": "Antonio", "FNac": null, "LugNac": null, "Titulo": null, "Obs": null, "Tipo": "Diputado" }, "geometry": { "type": "Point", "coordinates": [ -3.701458674753769, 40.42095688176596 ] } },
{ "type": "Feature", "properties": { "id": null, "Circuns": "Almería", "Distrito": "Almería", "Direccion": "Pl. de las Cortes 8", "Faccion": null, "Apellidos": "Morcillo de la Cuesta", "Nombre": "Bernabé", "FNac": null, "LugNac": null, "Titulo": null, "Obs": null, "Tipo": "Diputado" }, "geometry": { "type": "Point", "coordinates": [ -3.697114338638819, 40.415863972720764 ] } },
{ "type": "Feature", "properties": { "id": null, "Circuns": "Cáceres", "Distrito": "Alcántara", "Direccion": "Alcalá 31", "Faccion": null, "Apellidos": "Moreno", "Nombre": "Antonio Ángel", "FNac": null, "LugNac": null, "Titulo": null, "Obs": null, "Tipo": "Diputado" }, "geometry": { "type": "Point", "coordinates": [ -3.698009173063433, 40.418583017062062 ] } },
{ "type": "Feature", "properties": { "id": null, "Circuns": "Alicante", "Distrito": "Orihuela", "Direccion": "Pl. del Progreso 8", "Faccion": null, "Apellidos": "Moreno Leante", "Nombre": "José", "FNac": null, "LugNac": null, "Titulo": null, "Obs": null, "Tipo": "Diputado" }, "geometry": { "type": "Point", "coordinates": [ -3.704725404565735, 40.412024103553044 ] } },
{ "type": "Feature", "properties": { "id": null, "Circuns": "Cádiz", "Distrito": "Cádiz", "Direccion": "Alcalá 2. Fonda de París.", "Faccion": null, "Apellidos": "Moreno de Mora", "Nombre": "José", "FNac": null, "LugNac": null, "Titulo": null, "Obs": null, "Tipo": "Diputado" }, "geometry": { "type": "Point", "coordinates": [ -3.702116681596874, 40.417004172524138 ] } },
{ "type": "Feature", "properties": { "id": null, "Circuns": "Badajoz", "Distrito": "Castuera", "Direccion": "S. Marcos 26 dup", "Faccion": null, "Apellidos": "Moreno Nieto", "Nombre": "José", "FNac": null, "LugNac": null, "Titulo": null, "Obs": null, "Tipo": "Diputado" }, "geometry": { "type": "Point", "coordinates": [ -3.698337696369448, 40.42125467196076 ] } },
{ "type": "Feature", "properties": { "id": null, "Circuns": "Valladolid", "Distrito": "Valladolid", "Direccion": "Pl. de Santa Ana 17", "Faccion": null, "Apellidos": "Moyano", "Nombre": "Claudio", "FNac": null, "LugNac": null, "Titulo": null, "Obs": null, "Tipo": "Diputado" }, "geometry": { "type": "Point", "coordinates": [ -3.701494643269326, 40.414974640932513 ] } },
{ "type": "Feature", "properties": { "id": null, "Circuns": "Zamora", "Distrito": "Villalpando", "Direccion": "Sordo 23", "Faccion": null, "Apellidos": "Muñiz", "Nombre": "Ricardo", "FNac": null, "LugNac": null, "Titulo": null, "Obs": null, "Tipo": "Diputado" }, "geometry": { "type": "Point", "coordinates": [ -3.696301375922759, 40.416908290654092 ] } },
{ "type": "Feature", "properties": { "id": null, "Circuns": "Teruel", "Distrito": "Montalbán", "Direccion": "Pizarro 14", "Faccion": null, "Apellidos": "Muñoz Herrera", "Nombre": "Mariano", "FNac": null, "LugNac": null, "Titulo": null, "Obs": null, "Tipo": "Diputado" }, "geometry": { "type": "Point", "coordinates": [ -3.70579527978514, 40.42305933925968 ] } },
{ "type": "Feature", "properties": { "id": null, "Circuns": "Valladolid", "Distrito": "La Nava", "Direccion": "S. Bernardo 13", "Faccion": null, "Apellidos": "Muñoz y Vargas", "Nombre": "Juan", "FNac": null, "LugNac": null, "Titulo": null, "Obs": null, "Tipo": "Diputado" }, "geometry": { "type": "Point", "coordinates": [ -3.708028682409957, 40.421802744831041 ] } },
{ "type": "Feature", "properties": { "id": null, "Circuns": "Barcelona", "Distrito": "Gracia", "Direccion": "Puerta del Sol 1. Hotel de París", "Faccion": null, "Apellidos": "Ndal y Villadarga", "Nombre": "José María", "FNac": null, "LugNac": null, "Titulo": null, "Obs": null, "Tipo": "Diputado" }, "geometry": { "type": "Point", "coordinates": [ -3.702215491273642, 40.416890498385051 ] } },
{ "type": "Feature", "properties": { "id": null, "Circuns": "Oviedo", "Distrito": "Tineo", "Direccion": "Luzón 1", "Faccion": null, "Apellidos": null, "Nombre": null, "FNac": null, "LugNac": null, "Titulo": "Marqués de Muros", "Obs": null, "Tipo": "Diputado" }, "geometry": { "type": "Point", "coordinates": [ -3.710649910456377, 40.415679269654788 ] } },
{ "type": "Feature", "properties": { "id": null, "Circuns": "Baleares", "Distrito": "Manacor", "Direccion": "Colegiata 6", "Faccion": null, "Apellidos": "Navarro y Calvo", "Nombre": "Luis", "FNac": null, "LugNac": null, "Titulo": null, "Obs": null, "Tipo": "Diputado" }, "geometry": { "type": "Point", "coordinates": [ -3.705650162577301, 40.412818734718861 ] } },
{ "type": "Feature", "properties": { "id": null, "Circuns": "Málaga", "Distrito": "Gaucín", "Direccion": "Desengaño 10", "Faccion": null, "Apellidos": "Navarro y Díaz", "Nombre": "Cristóbal", "FNac": null, "LugNac": null, "Titulo": null, "Obs": null, "Tipo": "Diputado" }, "geometry": { "type": "Point", "coordinates": [ -3.702353654597166, 40.420714908950686 ] } },
{ "type": "Feature", "properties": { "id": null, "Circuns": "Orense", "Distrito": "Bande", "Direccion": "Barcelona 14", "Faccion": null, "Apellidos": "Navarro y Rodrigo", "Nombre": "Antonio", "FNac": null, "LugNac": null, "Titulo": null, "Obs": null, "Tipo": "Diputado" }, "geometry": { "type": "Point", "coordinates": [ -3.702685744209187, 40.415093661214904 ] } },
{ "type": "Feature", "properties": { "id": null, "Circuns": "Almería", "Distrito": "Puerchena", "Direccion": "Claudio Coello 5", "Faccion": null, "Apellidos": "Navarro  ROdrigo", "Nombre": "Carlos", "FNac": null, "LugNac": null, "Titulo": null, "Obs": null, "Tipo": "Diputado" }, "geometry": { "type": "Point", "coordinates": [ -3.687040125800102, 40.423184065723461 ] } },
{ "type": "Feature", "properties": { "id": null, "Circuns": "Zaragoza", "Distrito": "Borja", "Direccion": "Puerta del Sol 14. Fonda Española", "Faccion": null, "Apellidos": "Navascués Aisa", "Nombre": "Nicasio", "FNac": null, "LugNac": null, "Titulo": null, "Obs": null, "Tipo": "Diputado" }, "geometry": { "type": "Point", "coordinates": [ -3.70291334863559, 40.417234722282103 ] } },
{ "type": "Feature", "properties": { "id": null, "Circuns": "Coruña", "Distrito": "Santa María de Ordenes", "Direccion": "Luna 14", "Faccion": null, "Apellidos": "Neira Flores", "Nombre": "Gerardo", "FNac": null, "LugNac": null, "Titulo": null, "Obs": null, "Tipo": "Diputado" }, "geometry": { "type": "Point", "coordinates": [ -3.705520501805468, 40.42204464210451 ] } },
{ "type": "Feature", "properties": { "id": null, "Circuns": "Valladolid", "Distrito": "Villalón", "Direccion": "Lope de Vega 39", "Faccion": null, "Apellidos": "Nieto y Álvarez", "Nombre": "José", "FNac": null, "LugNac": null, "Titulo": null, "Obs": null, "Tipo": "Diputado" }, "geometry": { "type": "Point", "coordinates": [ -3.696514025891018, 40.413776522340243 ] } },
{ "type": "Feature", "properties": { "id": null, "Circuns": "Castellón", "Distrito": "Castellón", "Direccion": "Prado 10", "Faccion": null, "Apellidos": "Nuñez del Arce", "Nombre": "Gaspar", "FNac": null, "LugNac": null, "Titulo": null, "Obs": null, "Tipo": "Diputado" }, "geometry": { "type": "Point", "coordinates": [ -3.699107142870306, 40.414628066244688 ] } },
{ "type": "Feature", "properties": { "id": null, "Circuns": "Soria", "Distrito": "Almazán", "Direccion": "Carmen 10", "Faccion": null, "Apellidos": "Nuñez de Prado", "Nombre": "Joaquín", "FNac": null, "LugNac": null, "Titulo": null, "Obs": null, "Tipo": "Diputado" }, "geometry": { "type": "Point", "coordinates": [ -3.70372360730879, 40.417941125615421 ] } },
{ "type": "Feature", "properties": { "id": null, "Circuns": "Albacete", "Distrito": "Almansa", "Direccion": "Carr. de S. Gerónimo 7", "Faccion": null, "Apellidos": "Ochoa y Llacer", "Nombre": "Miguel", "FNac": null, "LugNac": null, "Titulo": null, "Obs": null, "Tipo": "Diputado" }, "geometry": { "type": "Point", "coordinates": [ -3.701445070792993, 40.416811198043376 ] } },
{ "type": "Feature", "properties": { "id": null, "Circuns": "Zaragoza", "Distrito": "Caspe", "Direccion": "Alcalá 7. Hotel Penínsular", "Faccion": null, "Apellidos": "Olaso Miguel", "Nombre": "Valentín", "FNac": null, "LugNac": null, "Titulo": null, "Obs": null, "Tipo": "Diputado" }, "geometry": { "type": "Point", "coordinates": [ -3.701700101374887, 40.417391943134575 ] } },
{ "type": "Feature", "properties": { "id": null, "Circuns": "Oviedo", "Distrito": "Luarca", "Direccion": "Greda 26", "Faccion": null, "Apellidos": "Olavarrieta", "Nombre": "Ventura", "FNac": null, "LugNac": null, "Titulo": null, "Obs": null, "Tipo": "Diputado" }, "geometry": { "type": "Point", "coordinates": [ -3.696004171168096, 40.417545271317969 ] } },
{ "type": "Feature", "properties": { "id": null, "Circuns": "Valencia", "Distrito": "Játiva", "Direccion": "Carr. de S. Gerónimo 45-47", "Faccion": null, "Apellidos": "Oliag y Carra", "Nombre": "Vicente", "FNac": null, "LugNac": null, "Titulo": null, "Obs": null, "Tipo": "Diputado" }, "geometry": { "type": "Point", "coordinates": [ -3.69792298915745, 40.416523595353574 ] } },
{ "type": "Feature", "properties": { "id": null, "Circuns": "Segovia", "Distrito": "Santa María de Nieva", "Direccion": "Carr. de S. Gerónimo 40", "Faccion": null, "Apellidos": "Oñate y Valcarce", "Nombre": "Antonio", "FNac": null, "LugNac": null, "Titulo": null, "Obs": null, "Tipo": "Diputado" }, "geometry": { "type": "Point", "coordinates": [ -3.697915227510639, 40.41617149021544 ] } },
{ "type": "Feature", "properties": { "id": null, "Circuns": "Segovia", "Distrito": "Riaza", "Direccion": "Mayor 122", "Faccion": null, "Apellidos": "Oñate y Valcarce", "Nombre": "José", "FNac": null, "LugNac": null, "Titulo": null, "Obs": null, "Tipo": "Diputado" }, "geometry": { "type": "Point", "coordinates": [ -3.713252403642288, 40.415213116451312 ] } },
{ "type": "Feature", "properties": { "id": null, "Circuns": "Cuenca", "Distrito": "Cuenca", "Direccion": "S. Quintín 10", "Faccion": null, "Apellidos": "Ordoñez", "Nombre": "Ezequiel", "FNac": null, "LugNac": null, "Titulo": null, "Obs": null, "Tipo": "Diputado" }, "geometry": { "type": "Point", "coordinates": [ -3.712686822397242, 40.419673621384327 ] } },
{ "type": "Feature", "properties": { "id": null, "Circuns": "Coruña", "Distrito": "Padrón", "Direccion": "Mayor 1. Hotel de Madrid", "Faccion": null, "Apellidos": "Orense", "Nombre": "Rafael Antonio de", "FNac": null, "LugNac": null, "Titulo": null, "Obs": null, "Tipo": "Diputado" }, "geometry": { "type": "Point", "coordinates": [ -3.704589033239493, 40.416429422892335 ] } },
{ "type": "Feature", "properties": { "id": 2, "Circuns": "Logroño", "Distrito": "Arnedo", "Direccion": "Huertas 15", "Faccion": null, "Apellidos": null, "Nombre": null, "FNac": null, "LugNac": null, "Titulo": "Marqués de Orovio", "Obs": null, "Tipo": "Diputado" }, "geometry": { "type": "Point", "coordinates": [ -3.699760281378551, 40.413883961881474 ] } },
{ "type": "Feature", "properties": { "id": null, "Circuns": "Barcelona", "Distrito": "Berga", "Direccion": "Magdalena 22", "Faccion": null, "Apellidos": "Orozco", "Nombre": "Enrique", "FNac": null, "LugNac": null, "Titulo": null, "Obs": null, "Tipo": "Diputado" }, "geometry": { "type": "Point", "coordinates": [ -3.701195402526681, 40.412242745423761 ] } },
{ "type": "Feature", "properties": { "id": null, "Circuns": "Santander", "Distrito": "Santander", "Direccion": "Carr. de S. Gerónimo. Hotel de Rusia.", "Faccion": null, "Apellidos": "Otero y ROsillo", "Nombre": "Benito de", "FNac": null, "LugNac": null, "Titulo": null, "Obs": null, "Tipo": "Diputado" }, "geometry": { "type": "Point", "coordinates": [ -3.698958481362433, 40.416423064807546 ] } },
{ "type": "Feature", "properties": { "id": null, "Circuns": "Pontevedra", "Distrito": "Puenteáreas", "Direccion": "Claudio Coello 17", "Faccion": null, "Apellidos": "Parra", "Nombre": "Escolástico de la", "FNac": null, "LugNac": null, "Titulo": null, "Obs": null, "Tipo": "Diputado" }, "geometry": { "type": "Point", "coordinates": [ -3.68682938270008, 40.4247404505426 ] } },
{ "type": "Feature", "properties": { "id": null, "Circuns": "Guadalajara", "Distrito": "Pastrana", "Direccion": "Ave-María 17", "Faccion": null, "Apellidos": "Pastor y Magán", "Nombre": "José", "FNac": null, "LugNac": null, "Titulo": null, "Obs": null, "Tipo": "Diputado" }, "geometry": { "type": "Point", "coordinates": [ -3.700336627162016, 40.410982663935826 ] } },
{ "type": "Feature", "properties": { "id": null, "Circuns": "Zamora", "Distrito": "Benavente", "Direccion": "Caballero de Gracia 23", "Faccion": null, "Apellidos": null, "Nombre": null, "FNac": null, "LugNac": null, "Titulo": "Conde de la Patilla", "Obs": null, "Tipo": "Diputado" }, "geometry": { "type": "Point", "coordinates": [ -3.699514183117039, 40.419420790997393 ] } },
{ "type": "Feature", "properties": { "id": null, "Circuns": "Madrid", "Distrito": "Madrid", "Direccion": "Olivo 6-8", "Faccion": null, "Apellidos": "Pavía Rodríguez de Alburquerque", "Nombre": "Manuel", "FNac": null, "LugNac": null, "Titulo": null, "Obs": "Ojo", "Tipo": "Diputado" }, "geometry": { "type": "Point", "coordinates": [ -3.70456599150081, 40.419094141225862 ] } },
{ "type": "Feature", "properties": { "id": null, "Circuns": "Murcia", "Distrito": "Cartagena", "Direccion": "Alcalá 17", "Faccion": null, "Apellidos": "Pedreño y Torralva", "Nombre": "Andrés", "FNac": null, "LugNac": null, "Titulo": null, "Obs": null, "Tipo": "Diputado" }, "geometry": { "type": "Point", "coordinates": [ -3.700051141060589, 40.417904082870415 ] } },
{ "type": "Feature", "properties": { "id": null, "Circuns": "Pontevedra", "Distrito": "Cañiza", "Direccion": "Serrano 80", "Faccion": null, "Apellidos": "Pelletan", "Nombre": "Eduardo", "FNac": null, "LugNac": null, "Titulo": null, "Obs": null, "Tipo": "Diputado" }, "geometry": { "type": "Point", "coordinates": [ -3.686457517999159, 40.432744061323199 ] } },
{ "type": "Feature", "properties": { "id": null, "Circuns": "Cáceres", "Distrito": "Plasencia", "Direccion": "Preciados 6", "Faccion": null, "Apellidos": "Pérez Aloe", "Nombre": "Pío", "FNac": null, "LugNac": null, "Titulo": null, "Obs": null, "Tipo": "Diputado" }, "geometry": { "type": "Point", "coordinates": [ -3.704277342929437, 40.417689963340422 ] } },
{ "type": "Feature", "properties": { "id": null, "Circuns": "Zaragoza", "Distrito": "Catalayud", "Direccion": "Paz 9", "Faccion": null, "Apellidos": "Pérez Garchitorena", "Nombre": "José", "FNac": null, "LugNac": null, "Titulo": null, "Obs": null, "Tipo": "Diputado" }, "geometry": { "type": "Point", "coordinates": [ -3.70388547406006, 40.415562074602192 ] } },
{ "type": "Feature", "properties": { "id": null, "Circuns": "Lugo", "Distrito": "Villalba", "Direccion": "Cta. de Santo Domingo 3", "Faccion": null, "Apellidos": "Pérez Hernández", "Nombre": "Enrique", "FNac": null, "LugNac": null, "Titulo": null, "Obs": null, "Tipo": "Diputado" }, "geometry": { "type": "Point", "coordinates": [ -3.710089041579888, 40.419281590520811 ] } },
{ "type": "Feature", "properties": { "id": null, "Circuns": "Badajoz", "Distrito": "Zafra", "Direccion": "Carr. de S. Gerónimo 45", "Faccion": null, "Apellidos": "Pérez Lacasaña", "Nombre": "Elías", "FNac": null, "LugNac": null, "Titulo": null, "Obs": null, "Tipo": "Diputado" }, "geometry": { "type": "Point", "coordinates": [ -3.697949699926367, 40.416530221906214 ] } },
{ "type": "Feature", "properties": { "id": null, "Circuns": "Coruña", "Distrito": "Ferrol", "Direccion": "Mayor 1. Hotel de Madrid", "Faccion": null, "Apellidos": "Pérez y López", "Nombre": "Nicasio", "FNac": null, "LugNac": null, "Titulo": null, "Obs": null, "Tipo": "Diputado" }, "geometry": { "type": "Point", "coordinates": [ -3.704654926648597, 40.416393266668194 ] } },
{ "type": "Feature", "properties": { "id": null, "Circuns": "Burgos", "Distrito": "Briviesca", "Direccion": "Amor de Dios 4", "Faccion": null, "Apellidos": "Pérez Sanmillán", "Nombre": "Juan", "FNac": null, "LugNac": null, "Titulo": null, "Obs": null, "Tipo": "Diputado" }, "geometry": { "type": "Point", "coordinates": [ -3.698450792274191, 40.413066892758721 ] } },
{ "type": "Feature", "properties": { "id": null, "Circuns": "Canarias", "Distrito": "Lorotava", "Direccion": "Baño 12", "Faccion": null, "Apellidos": "Pérez Zamora", "Nombre": "Feliciano", "FNac": null, "LugNac": null, "Titulo": null, "Obs": null, "Tipo": "Diputado" }, "geometry": { "type": "Point", "coordinates": [ -3.699051878271833, 40.415600312006042 ] } },
{ "type": "Feature", "properties": { "id": null, "Circuns": "Albacete", "Distrito": "Hellín", "Direccion": "Bailén 4", "Faccion": null, "Apellidos": "Perier", "Nombre": "Carlos María", "FNac": null, "LugNac": null, "Titulo": null, "Obs": null, "Tipo": "Diputado" }, "geometry": { "type": "Point", "coordinates": [ -3.712685497306488, 40.419950630947298 ] } },
{ "type": "Feature", "properties": { "id": null, "Circuns": "Oviedo", "Distrito": "Oviedo", "Direccion": "Carr. de S. Gerónimo 28", "Faccion": null, "Apellidos": null, "Nombre": null, "FNac": null, "LugNac": null, "Titulo": "Marqués de Pidal", "Obs": null, "Tipo": "Diputado" }, "geometry": { "type": "Point", "coordinates": [ -3.699954637181525, 40.416475165122613 ] } },
{ "type": "Feature", "properties": { "id": null, "Circuns": "Oviedo", "Distrito": "Villaviciosa", "Direccion": "Carr. de S. Gerónimo 28", "Faccion": "Partido Moderado", "Apellidos": "Pidal y Mon", "Nombre": "Alejandro", "FNac": null, "LugNac": null, "Titulo": null, "Obs": null, "Tipo": "Diputado" }, "geometry": { "type": "Point", "coordinates": [ -3.699850931095017, 40.416466654706504 ] } },
{ "type": "Feature", "properties": { "id": null, "Circuns": "Oviedo", "Distrito": "Castropol", "Direccion": "Vitoria 1", "Faccion": null, "Apellidos": "Pinedo Luis Blanco", "Nombre": "Dionisio", "FNac": null, "LugNac": null, "Titulo": null, "Obs": null, "Tipo": "Diputado" }, "geometry": { "type": "Point", "coordinates": [ -3.701541902284462, 40.41647998517913 ] } },
{ "type": "Feature", "properties": { "id": null, "Circuns": "León", "Distrito": "León", "Direccion": "Pl. de Sta Ana 17", "Faccion": null, "Apellidos": "Piñón y Alonso de la Bárcena", "Nombre": "Juan", "FNac": null, "LugNac": null, "Titulo": null, "Obs": "Error en la guía", "Tipo": "Diputado" }, "geometry": { "type": "Point", "coordinates": [ -3.701502844267227, 40.414934156803376 ] } },
{ "type": "Feature", "properties": { "id": null, "Circuns": "Badajoz", "Distrito": "Mérida", "Direccion": "Infantas 26", "Faccion": null, "Apellidos": "Piñero y Salguero", "Nombre": "Cipriano", "FNac": null, "LugNac": null, "Titulo": null, "Obs": null, "Tipo": "Diputado" }, "geometry": { "type": "Point", "coordinates": [ -3.699680709455504, 40.420616867763385 ] } },
{ "type": "Feature", "properties": { "id": null, "Circuns": "Castellón", "Distrito": "Vinaroz", "Direccion": "Pº del Prado 22", "Faccion": null, "Apellidos": "Polo de Bernabé Borrás", "Nombre": "José", "FNac": null, "LugNac": null, "Titulo": null, "Obs": null, "Tipo": "Diputado" }, "geometry": { "type": "Point", "coordinates": [ -3.694237472800434, 40.414054543534746 ] } },
{ "type": "Feature", "properties": { "id": null, "Circuns": "Tarragona", "Distrito": "Reus", "Direccion": "Cta. de Sto. Domingo 22", "Faccion": null, "Apellidos": "Pons y Espinos", "Nombre": "Mariano", "FNac": null, "LugNac": null, "Titulo": null, "Obs": null, "Tipo": "Diputado" }, "geometry": { "type": "Point", "coordinates": [ -3.708420641445208, 40.419675200227566 ] } },
{ "type": "Feature", "properties": { "id": null, "Circuns": "Oviedo", "Distrito": "Llanes", "Direccion": "Arenal 15 dup", "Faccion": null, "Apellidos": "Posada Herrera", "Nombre": "José", "FNac": null, "LugNac": null, "Titulo": null, "Obs": null, "Tipo": "Diputado" }, "geometry": { "type": "Point", "coordinates": [ -3.707496957144194, 40.417373112604828 ] } },